{"type":"FeatureCollection","features":[{"type":"Feature","properties":{"Facility ID":1186,"Name":"North Central Bronx Hospital","Type":"Hospital","Street Address":"3424 Kossuth Avenue & 210th Street","City":"Bronx","County":"Bronx","State":"New York","Zip Code":10467,"Facility Phone Number":7185193500,"Facility Location":"(40.880512, -73.881538)"},"geometry":{"type":"Point","coordinates":[-73.881538,40.880512]}},{"type":"Feature","properties":{"Facility ID":1473,"Name":"RUMC-Bayley Seton","Type":"Hospital","Street Address":"75 Vanderbilt Avenue","City":"Staten Island","County":"Richmond","State":"New York","Zip Code":10304,"Facility Phone Number":7183906000,"Facility Location":"(40.621376, -74.07476)"},"geometry":{"type":"Point","coordinates":[-74.07476,40.621376]}},{"type":"Feature","properties":{"Facility ID":1185,"Name":"Montefiore Medical Center - Montefiore Westchester Square","Type":"Hospital","Street Address":"2475 St. Raymond Avenue","City":"Bronx","County":"Bronx","State":"New York","Zip Code":10461,"Facility Phone Number":7184307359,"Facility Location":"(40.840431, -73.848244)"},"geometry":{"type":"Point","coordinates":[-73.848244,40.840431]}},{"type":"Feature","properties":{"Facility ID":482,"Name":"St. Mary's Healthcare - Amsterdam Memorial Campus","Type":"Hospital","Street Address":"4988 Sthwy 30","City":"Amsterdam","County":"Montgomery","State":"New York","Zip Code":12010,"Facility Phone Number":5188423100,"Facility Location":"(42.961201, -74.186272)"},"geometry":{"type":"Point","coordinates":[-74.186272,42.961201]}},{"type":"Feature","properties":{"Facility ID":971,"Name":"Garnet Health Medical Center - Catskills","Type":"Hospital","Street Address":"68 Harris-Bushville Road P.O. Box 800","City":"Harris","County":"Sullivan","State":"New York","Zip Code":12742,"Facility Phone Number":8457943300,"Facility Location":"(41.706588, -74.735987)"},"geometry":{"type":"Point","coordinates":[-74.735987,41.706588]}},{"type":"Feature","properties":{"Facility ID":1,"Name":"Albany Medical Center Hospital","Type":"Hospital","Street Address":"43 New Scotland Avenue","City":"Albany","County":"Albany","State":"New York","Zip Code":12208,"Facility Phone Number":5182623474,"Facility Location":"(42.65337, -73.773834)"},"geometry":{"type":"Point","coordinates":[-73.773834,42.65337]}},{"type":"Feature","properties":{"Facility ID":727,"Name":"Oswego Hospital","Type":"Hospital","Street Address":"110 W Sixth Street","City":"Oswego","County":"Oswego","State":"New York","Zip Code":13126,"Facility Phone Number":3153495511,"Facility Location":"(43.454781, -76.516434)"},"geometry":{"type":"Point","coordinates":[-76.516434,43.454781]}},{"type":"Feature","properties":{"Facility ID":896,"Name":"St. Charles Hospital","Type":"Hospital","Street Address":"200 Belle Terre Road","City":"Port Jefferson","County":"Suffolk","State":"New York","Zip Code":11777,"Facility Phone Number":6314746600,"Facility Location":"(40.947533, -73.060081)"},"geometry":{"type":"Point","coordinates":[-73.060081,40.947533]}},{"type":"Feature","properties":{"Facility ID":977,"Name":"Cayuga Medical Center at Ithaca","Type":"Hospital","Street Address":"101 Dates Drive","City":"Ithaca","County":"Tompkins","State":"New York","Zip Code":14850,"Facility Phone Number":6072744011,"Facility Location":"(42.469826, -76.536896)"},"geometry":{"type":"Point","coordinates":[-76.536896,42.469826]}},{"type":"Feature","properties":{"Facility ID":1097,"Name":"SJRH - St Johns Division","Type":"Hospital","Street Address":"967 North Broadway","City":"Yonkers","County":"Westchester","State":"New York","Zip Code":10701,"Facility Phone Number":9149644200,"Facility Location":"(40.968262, -73.885033)"},"geometry":{"type":"Point","coordinates":[-73.885033,40.968262]}},{"type":"Feature","properties":{"Facility ID":1293,"Name":"Maimonides Midwood Community Hospital","Type":"Hospital","Street Address":"2525 Kings Highway","City":"Brooklyn","County":"Kings","State":"New York","Zip Code":11229,"Facility Phone Number":7186925300,"Facility Location":"(40.613419, -73.948967)"},"geometry":{"type":"Point","coordinates":[-73.948967,40.613419]}},{"type":"Feature","properties":{"Facility ID":574,"Name":"Niagara Falls Memorial Medical Center","Type":"Hospital","Street Address":"621 Tenth Street","City":"Niagara Falls","County":"Niagara","State":"New York","Zip Code":14302,"Facility Phone Number":7162784000,"Facility Location":"(43.094048, -79.0504)"},"geometry":{"type":"Point","coordinates":[-79.0504,43.094048]}},{"type":"Feature","properties":{"Facility ID":1439,"Name":"Mount Sinai Beth Israel","Type":"Hospital","Street Address":"First Ave at 16th Street","City":"New York","County":"New York","State":"New York","Zip Code":10003,"Facility Phone Number":2124202873,"Facility Location":"(40.732666, -73.981598)"},"geometry":{"type":"Point","coordinates":[-73.981598,40.732666]}},{"type":"Feature","properties":{"Facility ID":5,"Name":"St. Peter's Hospital","Type":"Hospital","Street Address":"315 South Manning Boulevard","City":"Albany","County":"Albany","State":"New York","Zip Code":12208,"Facility Phone Number":5184541550,"Facility Location":"(42.657539, -73.803879)"},"geometry":{"type":"Point","coordinates":[-73.803879,42.657539]}},{"type":"Feature","properties":{"Facility ID":207,"Name":"Buffalo General Medical Center","Type":"Hospital","Street Address":"100 High Street","City":"Buffalo","County":"Erie","State":"New York","Zip Code":14203,"Facility Phone Number":7168595600,"Facility Location":"(42.900394, -78.865707)"},"geometry":{"type":"Point","coordinates":[-78.865707,42.900394]}},{"type":"Feature","properties":{"Facility ID":7528,"Name":"Mohawk Valley Heart Institute, Inc","Type":"Hospital","Street Address":"2209 Genesee Street","City":"Utica","County":"Oneida","State":"New York","Zip Code":13501,"Facility Phone Number":3158230808,"Facility Location":"(43.083561, -75.267189)"},"geometry":{"type":"Point","coordinates":[-75.267189,43.083561]}},{"type":"Feature","properties":{"Facility ID":1158,"Name":"Soldiers and Sailors Memorial Hospital of Yates County","Type":"Hospital","Street Address":"418 North Main Street","City":"Penn Yan","County":"Yates","State":"New York","Zip Code":14527,"Facility Phone Number":3155312000,"Facility Location":"(42.670712, -77.059822)"},"geometry":{"type":"Point","coordinates":[-77.059822,42.670712]}},{"type":"Feature","properties":{"Facility ID":513,"Name":"Mercy Hospital","Type":"Hospital","Street Address":"1000 North Village Avenue","City":"Rockville Centre","County":"Nassau","State":"New York","Zip Code":11570,"Facility Phone Number":5167052525,"Facility Location":"(40.688408, -73.63324)"},"geometry":{"type":"Point","coordinates":[-73.63324,40.688408]}},{"type":"Feature","properties":{"Facility ID":397,"Name":"Oneida Health Hospital","Type":"Hospital","Street Address":"321 Genesee Street","City":"Oneida","County":"Madison","State":"New York","Zip Code":13421,"Facility Phone Number":3153636000,"Facility Location":"(43.07869, -75.654449)"},"geometry":{"type":"Point","coordinates":[-75.654449,43.07869]}},{"type":"Feature","properties":{"Facility ID":1737,"Name":"Staten Island University Hospital Prince's Bay","Type":"Hospital","Street Address":"375 Seguine Avenue","City":"Staten Island","County":"Richmond","State":"New York","Zip Code":10309,"Facility Phone Number":7182269515,"Facility Location":"(40.516773, -74.196808)"},"geometry":{"type":"Point","coordinates":[-74.196808,40.516773]}},{"type":"Feature","properties":{"Facility ID":98,"Name":"Brooks-TLC Hospital System, Inc.","Type":"Hospital","Street Address":"529 Central Avenue","City":"Dunkirk","County":"Chautauqua","State":"New York","Zip Code":14048,"Facility Phone Number":7163661111,"Facility Location":"(42.480774, -79.33387)"},"geometry":{"type":"Point","coordinates":[-79.33387,42.480774]}},{"type":"Feature","properties":{"Facility ID":990,"Name":"HealthAlliance Hospital Broadway Campus","Type":"Hospital","Street Address":"396 Broadway","City":"Kingston","County":"Ulster","State":"New York","Zip Code":12401,"Facility Phone Number":8453342750,"Facility Location":"(41.92643, -73.995453)"},"geometry":{"type":"Point","coordinates":[-73.995453,41.92643]}},{"type":"Feature","properties":{"Facility ID":9431,"Name":"St. Peter's Addiction Recovery Center","Type":"Hospital","Street Address":"3 Mercycare Lane","City":"Guilderland","County":"Albany","State":"New York","Zip Code":12084,"Facility Phone Number":5184526701,"Facility Location":"(42.701252, -73.904968)"},"geometry":{"type":"Point","coordinates":[-73.904968,42.701252]}},{"type":"Feature","properties":{"Facility ID":1628,"Name":"Flushing Hospital Medical Center","Type":"Hospital","Street Address":"45th Avenue & Parsons Blvd","City":"Flushing","County":"Queens","State":"New York","Zip Code":11355,"Facility Phone Number":7186705918,"Facility Location":"(40.755531, -73.815475)"},"geometry":{"type":"Point","coordinates":[-73.815475,40.755531]}},{"type":"Feature","properties":{"Facility ID":1450,"Name":"Lenox Hill Hospital","Type":"Hospital","Street Address":"100 East 77th Street","City":"New York","County":"New York","State":"New York","Zip Code":10021,"Facility Phone Number":2124342060,"Facility Location":"(40.773907, -73.960632)"},"geometry":{"type":"Point","coordinates":[-73.960632,40.773907]}},{"type":"Feature","properties":{"Facility ID":303,"Name":"The University of Vermont Health Network - Elizabethtown Community Hospital","Type":"Hospital","Street Address":"75 Park Street","City":"Elizabethtown","County":"Essex","State":"New York","Zip Code":12932,"Facility Phone Number":5188736377,"Facility Location":"(44.215466, -73.596558)"},"geometry":{"type":"Point","coordinates":[-73.596558,44.215466]}},{"type":"Feature","properties":{"Facility ID":340,"Name":"United Memorial Medical Center Bank Street Campus","Type":"Hospital","Street Address":"16 Bank Street","City":"Batavia","County":"Genesee","State":"New York","Zip Code":14020,"Facility Phone Number":5853436030,"Facility Location":"(42.998436, -78.181587)"},"geometry":{"type":"Point","coordinates":[-78.181587,42.998436]}},{"type":"Feature","properties":{"Facility ID":66,"Name":"Olean General Hospital","Type":"Hospital","Street Address":"515 Main Street","City":"Olean","County":"Cattaraugus","State":"New York","Zip Code":14760,"Facility Phone Number":7163756171,"Facility Location":"(42.089844, -78.42688)"},"geometry":{"type":"Point","coordinates":[-78.42688,42.089844]}},{"type":"Feature","properties":{"Facility ID":9691,"Name":"South Nassau Communities Hospital Off-Campus Emergency Department","Type":"Hospital","Street Address":"325 East Bay Drive","City":"Long Beach","County":"Nassau","State":"New York","Zip Code":11561,"Facility Phone Number":5168701010,"Facility Location":"(40.594237, -73.654958)"},"geometry":{"type":"Point","coordinates":[-73.654958,40.594237]}},{"type":"Feature","properties":{"Facility ID":541,"Name":"North Shore University Hospital","Type":"Hospital","Street Address":"300 Community Drive","City":"Manhasset","County":"Nassau","State":"New York","Zip Code":11030,"Facility Phone Number":5165628730,"Facility Location":"(40.77924, -73.702888)"},"geometry":{"type":"Point","coordinates":[-73.702888,40.77924]}},{"type":"Feature","properties":{"Facility ID":10216,"Name":"Cobleskill Regional Hospital","Type":"Hospital","Street Address":"178 Grandview Drive","City":"Cobleskill","County":"Schoharie","State":"New York","Zip Code":12043,"Facility Phone Number":"","Facility Location":"(42.68683, -74.481976)"},"geometry":{"type":"Point","coordinates":[-74.481976,42.68683]}},{"type":"Feature","properties":{"Facility ID":815,"Name":"Canton-Potsdam Hospital","Type":"Hospital","Street Address":"50 Leroy Street","City":"Potsdam","County":"Saint Lawrence","State":"New York","Zip Code":13676,"Facility Phone Number":3152653300,"Facility Location":"(44.676151, -74.981529)"},"geometry":{"type":"Point","coordinates":[-74.981529,44.676151]}},{"type":"Feature","properties":{"Facility ID":58,"Name":"United Health Services Hospitals Inc. - Wilson Medical Center","Type":"Hospital","Street Address":"33-57 Harrison Street","City":"Johnson City","County":"Broome","State":"New York","Zip Code":13790,"Facility Phone Number":6077636000,"Facility Location":"(42.115063, -75.959122)"},"geometry":{"type":"Point","coordinates":[-75.959122,42.115063]}},{"type":"Feature","properties":{"Facility ID":37,"Name":"Cuba Memorial Hospital Inc","Type":"Hospital","Street Address":"140 West Main Street","City":"Cuba","County":"Allegany","State":"New York","Zip Code":14727,"Facility Phone Number":5859682000,"Facility Location":"(42.213474, -78.287506)"},"geometry":{"type":"Point","coordinates":[-78.287506,42.213474]}},{"type":"Feature","properties":{"Facility ID":490,"Name":"Glen Cove Hospital","Type":"Hospital","Street Address":"101 St Andrews Lane","City":"Glen Cove","County":"Nassau","State":"New York","Zip Code":11542,"Facility Phone Number":5166747588,"Facility Location":"(40.871731, -73.62159)"},"geometry":{"type":"Point","coordinates":[-73.62159,40.871731]}},{"type":"Feature","properties":{"Facility ID":362,"Name":"Little Falls Hospital","Type":"Hospital","Street Address":"140 Burwell Street","City":"Little Falls","County":"Herkimer","State":"New York","Zip Code":13365,"Facility Phone Number":3158231000,"Facility Location":"(43.043964, -74.847458)"},"geometry":{"type":"Point","coordinates":[-74.847458,43.043964]}},{"type":"Feature","properties":{"Facility ID":938,"Name":"Peconic Bay Medical Center","Type":"Hospital","Street Address":"1 Heroes Way","City":"Riverhead","County":"Suffolk","State":"New York","Zip Code":11901,"Facility Phone Number":6315486000,"Facility Location":"(40.9348, -72.6753)"},"geometry":{"type":"Point","coordinates":[-72.6753,40.9348]}},{"type":"Feature","properties":{"Facility ID":1164,"Name":"BronxCare Hospital Center","Type":"Hospital","Street Address":"1276 Fulton Avenue","City":"Bronx","County":"Bronx","State":"New York","Zip Code":10456,"Facility Phone Number":7189018800,"Facility Location":"(40.831772, -73.903656)"},"geometry":{"type":"Point","coordinates":[-73.903656,40.831772]}},{"type":"Feature","properties":{"Facility ID":1456,"Name":"Mount Sinai Hospital","Type":"Hospital","Street Address":"One Gustave L Levy Place","City":"New York","County":"New York","State":"New York","Zip Code":10029,"Facility Phone Number":2122417005,"Facility Location":"(40.790482, -73.953766)"},"geometry":{"type":"Point","coordinates":[-73.953766,40.790482]}},{"type":"Feature","properties":{"Facility ID":1635,"Name":"St Johns Episcopal Hospital So Shore","Type":"Hospital","Street Address":"327 Beach 19th Street","City":"Far Rockaway","County":"Queens","State":"New York","Zip Code":11691,"Facility Phone Number":7188687320,"Facility Location":"(40.598637, -73.752769)"},"geometry":{"type":"Point","coordinates":[-73.752769,40.598637]}},{"type":"Feature","properties":{"Facility ID":216,"Name":"Roswell Park Cancer Institute","Type":"Hospital","Street Address":"Elm and Carlton Streets","City":"Buffalo","County":"Erie","State":"New York","Zip Code":14263,"Facility Phone Number":7168452300,"Facility Location":"(42.898525, -78.865013)"},"geometry":{"type":"Point","coordinates":[-78.865013,42.898525]}},{"type":"Feature","properties":{"Facility ID":671,"Name":"Geneva General Hospital","Type":"Hospital","Street Address":"196-198 North Street","City":"Geneva","County":"Ontario","State":"New York","Zip Code":14456,"Facility Phone Number":3157874000,"Facility Location":"(42.875748, -76.987427)"},"geometry":{"type":"Point","coordinates":[-76.987427,42.875748]}},{"type":"Feature","properties":{"Facility ID":309,"Name":"The University of Vermont Health Network - Elizabethtown Community Hospital Moses Ludington","Type":"Hospital","Street Address":"101 Adirondack Drive, Suite 1","City":"Ticonderoga","County":"Essex","State":"New York","Zip Code":12883,"Facility Phone Number":5185852831,"Facility Location":"(43.849476, -73.435593)"},"geometry":{"type":"Point","coordinates":[-73.435593,43.849476]}},{"type":"Feature","properties":{"Facility ID":15417,"Name":"St. Peter's Hospital - SPARC","Type":"Hospital","Street Address":"1300 Massachusetts Avenue","City":"Troy","County":"Rensselaer","State":"New York","Zip Code":12180,"Facility Phone Number":5182685941,"Facility Location":"(42.742836, -73.676444)"},"geometry":{"type":"Point","coordinates":[-73.676444,42.742836]}},{"type":"Feature","properties":{"Facility ID":379,"Name":"Carthage Area Hospital Inc","Type":"Hospital","Street Address":"1001 West Street","City":"Carthage","County":"Jefferson","State":"New York","Zip Code":13619,"Facility Phone Number":3154931000,"Facility Location":"(43.986073, -75.595421)"},"geometry":{"type":"Point","coordinates":[-75.595421,43.986073]}},{"type":"Feature","properties":{"Facility ID":3067,"Name":"Millard Fillmore Suburban Hospital","Type":"Hospital","Street Address":"1540 Maple Road","City":"Amherst","County":"Erie","State":"New York","Zip Code":14221,"Facility Phone Number":7165683600,"Facility Location":"(42.991219, -78.72982)"},"geometry":{"type":"Point","coordinates":[-78.72982,42.991219]}},{"type":"Feature","properties":{"Facility ID":776,"Name":"Montefiore Nyack","Type":"Hospital","Street Address":"160 North Midland Avenue","City":"Nyack","County":"Rockland","State":"New York","Zip Code":10960,"Facility Phone Number":8453482000,"Facility Location":"(41.096249, -73.924957)"},"geometry":{"type":"Point","coordinates":[-73.924957,41.096249]}},{"type":"Feature","properties":{"Facility ID":599,"Name":"Faxton-St Lukes Healthcare St Lukes Division","Type":"Hospital","Street Address":"1656 Champlin  Avenue","City":"Utica","County":"Oneida","State":"New York","Zip Code":13502,"Facility Phone Number":3156246001,"Facility Location":"(43.098179, -75.275383)"},"geometry":{"type":"Point","coordinates":[-75.275383,43.098179]}},{"type":"Feature","properties":{"Facility ID":10355,"Name":"David H. Koch Center For Cancer Care","Type":"Hospital","Street Address":"530 East 74th Street","City":"New York","County":"New York","State":"New York","Zip Code":10021,"Facility Phone Number":"","Facility Location":"(40.767588, -73.951584)"},"geometry":{"type":"Point","coordinates":[-73.951584,40.767588]}},{"type":"Feature","properties":{"Facility ID":42,"Name":"United Health Services Hospitals Inc. - Binghamton General Hospital","Type":"Hospital","Street Address":"10-42 Mitchell Avenue","City":"Binghamton","County":"Broome","State":"New York","Zip Code":13903,"Facility Phone Number":6077622200,"Facility Location":"(42.088062, -75.91423)"},"geometry":{"type":"Point","coordinates":[-75.91423,42.088062]}},{"type":"Feature","properties":{"Facility ID":885,"Name":"Long Island Community Hospital","Type":"Hospital","Street Address":"101 Hospital Road","City":"Patchogue","County":"Suffolk","State":"New York","Zip Code":11772,"Facility Phone Number":6316547100,"Facility Location":"(40.778915, -72.978035)"},"geometry":{"type":"Point","coordinates":[-72.978035,40.778915]}},{"type":"Feature","properties":{"Facility ID":1464,"Name":"New York-Presbyterian Hospital - Columbia Presbyterian Center","Type":"Hospital","Street Address":"622 West 168th Street","City":"New York","County":"New York","State":"New York","Zip Code":10032,"Facility Phone Number":2123052500,"Facility Location":"(40.841415, -73.940704)"},"geometry":{"type":"Point","coordinates":[-73.940704,40.841415]}},{"type":"Feature","properties":{"Facility ID":831,"Name":"Sunnyview Hospital and Rehabilitation Center","Type":"Hospital","Street Address":"1270 Belmont Avenue","City":"Schenectady","County":"Schenectady","State":"New York","Zip Code":12308,"Facility Phone Number":5183824500,"Facility Location":"(42.82206, -73.913651)"},"geometry":{"type":"Point","coordinates":[-73.913651,42.82206]}},{"type":"Feature","properties":{"Facility ID":704,"Name":"St Anthony Community Hospital","Type":"Hospital","Street Address":"15 Maple Avenue","City":"Warwick","County":"Orange","State":"New York","Zip Code":10990,"Facility Phone Number":8459862276,"Facility Location":"(41.260586, -74.357185)"},"geometry":{"type":"Point","coordinates":[-74.357185,41.260586]}},{"type":"Feature","properties":{"Facility ID":1172,"Name":"Lincoln Medical & Mental Health Center","Type":"Hospital","Street Address":"234 East 149th Street","City":"Bronx","County":"Bronx","State":"New York","Zip Code":10451,"Facility Phone Number":7185795700,"Facility Location":"(40.817661, -73.92421)"},"geometry":{"type":"Point","coordinates":[-73.92421,40.817661]}},{"type":"Feature","properties":{"Facility ID":208,"Name":"John R. Oishei Children's Hospital","Type":"Hospital","Street Address":"818 Ellicott Street","City":"Buffalo","County":"Erie","State":"New York","Zip Code":14203,"Facility Phone Number":7168787000,"Facility Location":"(42.900716, -78.867203)"},"geometry":{"type":"Point","coordinates":[-78.867203,42.900716]}},{"type":"Feature","properties":{"Facility ID":1639,"Name":"Mount Sinai Hospital - Mount Sinai Hospital of Queens","Type":"Hospital","Street Address":"25-10 30th Avenue","City":"Long Island City","County":"Queens","State":"New York","Zip Code":11102,"Facility Phone Number":7189321000,"Facility Location":"(40.768269, -73.924461)"},"geometry":{"type":"Point","coordinates":[-73.924461,40.768269]}},{"type":"Feature","properties":{"Facility ID":895,"Name":"John T Mather Memorial Hospital of Port Jefferson New York Inc","Type":"Hospital","Street Address":"75 North Country Road","City":"Port Jefferson","County":"Suffolk","State":"New York","Zip Code":11777,"Facility Phone Number":6314731320,"Facility Location":"(40.93816, -73.053894)"},"geometry":{"type":"Point","coordinates":[-73.053894,40.93816]}},{"type":"Feature","properties":{"Facility ID":1138,"Name":"Blythedale Children's Hospital","Type":"Hospital","Street Address":"95 Bradhurst Avenue","City":"Valhalla","County":"Westchester","State":"New York","Zip Code":10595,"Facility Phone Number":9145927555,"Facility Location":"(41.076408, -73.798767)"},"geometry":{"type":"Point","coordinates":[-73.798767,41.076408]}},{"type":"Feature","properties":{"Facility ID":746,"Name":"Mary Imogene Bassett Hospital","Type":"Hospital","Street Address":"One Atwell Road","City":"Cooperstown","County":"Otsego","State":"New York","Zip Code":13326,"Facility Phone Number":6075473456,"Facility Location":"(42.695793, -74.922684)"},"geometry":{"type":"Point","coordinates":[-74.922684,42.695793]}},{"type":"Feature","properties":{"Facility ID":1305,"Name":"Maimonides Medical Center","Type":"Hospital","Street Address":"4802 Tenth Avenue","City":"Brooklyn","County":"Kings","State":"New York","Zip Code":11219,"Facility Phone Number":7182836000,"Facility Location":"(40.639423, -73.99839)"},"geometry":{"type":"Point","coordinates":[-73.99839,40.639423]}},{"type":"Feature","properties":{"Facility ID":550,"Name":"Syosset Hospital","Type":"Hospital","Street Address":"221 Jericho Turnpike","City":"Syosset","County":"Nassau","State":"New York","Zip Code":11791,"Facility Phone Number":5164966400,"Facility Location":"(40.810238, -73.508614)"},"geometry":{"type":"Point","coordinates":[-73.508614,40.810238]}},{"type":"Feature","properties":{"Facility ID":1740,"Name":"Staten Island University Hosp-North","Type":"Hospital","Street Address":"475 Seaview Avenue","City":"Staten Island","County":"Richmond","State":"New York","Zip Code":10305,"Facility Phone Number":7182269515,"Facility Location":"(40.584141, -74.086998)"},"geometry":{"type":"Point","coordinates":[-74.086998,40.584141]}},{"type":"Feature","properties":{"Facility ID":245,"Name":"Stony Brook University Hospital","Type":"Hospital","Street Address":"Health Sciences Center SUNY","City":"Stony Brook","County":"Suffolk","State":"New York","Zip Code":11794,"Facility Phone Number":6314442701,"Facility Location":"(40.909217, -73.115198)"},"geometry":{"type":"Point","coordinates":[-73.115198,40.909217]}},{"type":"Feature","properties":{"Facility ID":2,"Name":"Albany Medical Center - South Clinical Campus","Type":"Hospital","Street Address":"25 Hackett Boulevard","City":"Albany","County":"Albany","State":"New York","Zip Code":12208,"Facility Phone Number":5182621200,"Facility Location":"(42.645485, -73.77829)"},"geometry":{"type":"Point","coordinates":[-73.77829,42.645485]}},{"type":"Feature","properties":{"Facility ID":943,"Name":"St Catherine of Siena Hospital","Type":"Hospital","Street Address":"50 Route 25A","City":"Smithtown","County":"Suffolk","State":"New York","Zip Code":11787,"Facility Phone Number":6318623107,"Facility Location":"(40.867531, -73.220222)"},"geometry":{"type":"Point","coordinates":[-73.220222,40.867531]}},{"type":"Feature","properties":{"Facility ID":581,"Name":"Degraff Memorial Hospital","Type":"Hospital","Street Address":"445 Tremont Street","City":"North Tonawanda","County":"Niagara","State":"New York","Zip Code":14120,"Facility Phone Number":7166944500,"Facility Location":"(43.026154, -78.862457)"},"geometry":{"type":"Point","coordinates":[-78.862457,43.026154]}},{"type":"Feature","properties":{"Facility ID":409,"Name":"Highland Hospital","Type":"Hospital","Street Address":"1000 South Avenue","City":"Rochester","County":"Monroe","State":"New York","Zip Code":14620,"Facility Phone Number":5854732200,"Facility Location":"(43.135769, -77.607544)"},"geometry":{"type":"Point","coordinates":[-77.607544,43.135769]}},{"type":"Feature","properties":{"Facility ID":1486,"Name":"Henry J. Carter Specialty Hospital","Type":"Hospital","Street Address":"1752 Park Avenue","City":"New York","County":"New York","State":"New York","Zip Code":10035,"Facility Phone Number":2123188000,"Facility Location":"(40.802979, -73.940811)"},"geometry":{"type":"Point","coordinates":[-73.940811,40.802979]}},{"type":"Feature","properties":{"Facility ID":718,"Name":"Medina Memorial Hospital","Type":"Hospital","Street Address":"200 Ohio Street","City":"Medina","County":"Orleans","State":"New York","Zip Code":14103,"Facility Phone Number":5857982000,"Facility Location":"(43.223637, -78.397141)"},"geometry":{"type":"Point","coordinates":[-78.397141,43.223637]}},{"type":"Feature","properties":{"Facility ID":174,"Name":"Delaware Valley Hospital Inc","Type":"Hospital","Street Address":"1 Titus Place","City":"Walton","County":"Delaware","State":"New York","Zip Code":13856,"Facility Phone Number":6078652100,"Facility Location":"(42.165611, -75.12812)"},"geometry":{"type":"Point","coordinates":[-75.12812,42.165611]}},{"type":"Feature","properties":{"Facility ID":1629,"Name":"Jamaica Hospital Medical Center","Type":"Hospital","Street Address":"89th Avenue & Van Wyck Expressway","City":"Jamaica","County":"Queens","State":"New York","Zip Code":11418,"Facility Phone Number":7182066000,"Facility Location":"(40.701412, -73.816299)"},"geometry":{"type":"Point","coordinates":[-73.816299,40.701412]}},{"type":"Feature","properties":{"Facility ID":9700,"Name":"Lenox Health Greenwich Village","Type":"Hospital","Street Address":"30 Seventh Avenue","City":"New York","County":"New York","State":"New York","Zip Code":10011,"Facility Phone Number":5164658018,"Facility Location":"(40.737576, -74.000488)"},"geometry":{"type":"Point","coordinates":[-74.000488,40.737576]}},{"type":"Feature","properties":{"Facility ID":563,"Name":"St. Francis Hospital & Heart Center","Type":"Hospital","Street Address":"100 Port Washington Boulevard","City":"Roslyn","County":"Nassau","State":"New York","Zip Code":11576,"Facility Phone Number":5165626000,"Facility Location":"(40.800301, -73.669098)"},"geometry":{"type":"Point","coordinates":[-73.669098,40.800301]}},{"type":"Feature","properties":{"Facility ID":552,"Name":"Plainview Hospital","Type":"Hospital","Street Address":"888 Old Country Road","City":"Plainview","County":"Nassau","State":"New York","Zip Code":11803,"Facility Phone Number":5167193000,"Facility Location":"(40.774471, -73.478264)"},"geometry":{"type":"Point","coordinates":[-73.478264,40.774471]}},{"type":"Feature","properties":{"Facility ID":1318,"Name":"Wyckoff Heights Medical Center","Type":"Hospital","Street Address":"374 Stockholm Street","City":"Brooklyn","County":"Kings","State":"New York","Zip Code":11237,"Facility Phone Number":7189637101,"Facility Location":"(40.704517, -73.91774)"},"geometry":{"type":"Point","coordinates":[-73.91774,40.704517]}},{"type":"Feature","properties":{"Facility ID":798,"Name":"Claxton-Hepburn Medical Center","Type":"Hospital","Street Address":"214 King Street","City":"Ogdensburg","County":"Saint Lawrence","State":"New York","Zip Code":13669,"Facility Phone Number":3153933600,"Facility Location":"(44.692039, -75.499908)"},"geometry":{"type":"Point","coordinates":[-75.499908,44.692039]}},{"type":"Feature","properties":{"Facility ID":267,"Name":"Kenmore Mercy Hospital","Type":"Hospital","Street Address":"2950 Elmwood Avenue","City":"Kenmore","County":"Erie","State":"New York","Zip Code":14217,"Facility Phone Number":7164476100,"Facility Location":"(42.977848, -78.878754)"},"geometry":{"type":"Point","coordinates":[-78.878754,42.977848]}},{"type":"Feature","properties":{"Facility ID":158,"Name":"Guthrie Cortland Medical Center","Type":"Hospital","Street Address":"134 Homer Avenue","City":"Cortland","County":"Cortland","State":"New York","Zip Code":13045,"Facility Phone Number":6077567525,"Facility Location":"(42.609051, -76.186195)"},"geometry":{"type":"Point","coordinates":[-76.186195,42.609051]}},{"type":"Feature","properties":{"Facility ID":9753,"Name":"NYU Langone Health-Cobble Hill","Type":"Hospital","Street Address":"83 Amity Street","City":"Brooklyn","County":"Kings","State":"New York","Zip Code":11201,"Facility Phone Number":"","Facility Location":"(40.689615, -73.997478)"},"geometry":{"type":"Point","coordinates":[-73.997478,40.689615]}},{"type":"Feature","properties":{"Facility ID":870,"Name":"St. James Hospital","Type":"Hospital","Street Address":"7329 Seneca Road North","City":"Hornell","County":"Steuben","State":"New York","Zip Code":14843,"Facility Phone Number":6073248000,"Facility Location":"(42.314438, -77.660164)"},"geometry":{"type":"Point","coordinates":[-77.660164,42.314438]}},{"type":"Feature","properties":{"Facility ID":116,"Name":"Arnot Ogden Medical Center","Type":"Hospital","Street Address":"600 Roe Avenue","City":"Elmira","County":"Chemung","State":"New York","Zip Code":14905,"Facility Phone Number":6077374230,"Facility Location":"(42.099285, -76.826782)"},"geometry":{"type":"Point","coordinates":[-76.826782,42.099285]}},{"type":"Feature","properties":{"Facility ID":1176,"Name":"SBH Health System","Type":"Hospital","Street Address":"4422 Third Avenue","City":"Bronx","County":"Bronx","State":"New York","Zip Code":10457,"Facility Phone Number":7189606100,"Facility Location":"(40.853909, -73.891014)"},"geometry":{"type":"Point","coordinates":[-73.891014,40.853909]}},{"type":"Feature","properties":{"Facility ID":812,"Name":"Gouverneur Hospital","Type":"Hospital","Street Address":"77 West Barney Street","City":"Gouverneur","County":"Saint Lawrence","State":"New York","Zip Code":13642,"Facility Phone Number":3152874863,"Facility Location":"(44.338207, -75.474411)"},"geometry":{"type":"Point","coordinates":[-75.474411,44.338207]}},{"type":"Feature","properties":{"Facility ID":165,"Name":"O'Connor Hospital","Type":"Hospital","Street Address":"460 Andes Road","City":"Delhi","County":"Delaware","State":"New York","Zip Code":13753,"Facility Phone Number":6077460300,"Facility Location":"(42.269238, -74.91555)"},"geometry":{"type":"Point","coordinates":[-74.91555,42.269238]}},{"type":"Feature","properties":{"Facility ID":15437,"Name":"Mount Sinai -  Behavioral Health Center","Type":"Hospital","Street Address":"45 Rivington Street","City":"New York","County":"New York","State":"New York","Zip Code":10002,"Facility Phone Number":"","Facility Location":"(40.720812, -73.991089)"},"geometry":{"type":"Point","coordinates":[-73.991089,40.720812]}},{"type":"Feature","properties":{"Facility ID":1098,"Name":"St. Joseph's Medical Center","Type":"Hospital","Street Address":"127 South Broadway","City":"Yonkers","County":"Westchester","State":"New York","Zip Code":10701,"Facility Phone Number":9143787000,"Facility Location":"(40.929512, -73.896957)"},"geometry":{"type":"Point","coordinates":[-73.896957,40.929512]}},{"type":"Feature","properties":{"Facility ID":858,"Name":"Schuyler Hospital","Type":"Hospital","Street Address":"220 Steuben Street","City":"Montour Falls","County":"Schuyler","State":"New York","Zip Code":14865,"Facility Phone Number":6075357121,"Facility Location":"(42.351536, -76.858627)"},"geometry":{"type":"Point","coordinates":[-76.858627,42.351536]}},{"type":"Feature","properties":{"Facility ID":1465,"Name":"Rockefeller University Hospital","Type":"Hospital","Street Address":"1230 York Avenue","City":"New York","County":"New York","State":"New York","Zip Code":10021,"Facility Phone Number":2123277511,"Facility Location":"(40.762962, -73.956512)"},"geometry":{"type":"Point","coordinates":[-73.956512,40.762962]}},{"type":"Feature","properties":{"Facility ID":1028,"Name":"Newark-Wayne Community Hospital","Type":"Hospital","Street Address":"1200 Driving Park Avenue, Box 111","City":"Newark","County":"Wayne","State":"New York","Zip Code":14513,"Facility Phone Number":3153322022,"Facility Location":"(43.059728, -77.102244)"},"geometry":{"type":"Point","coordinates":[-77.102244,43.059728]}},{"type":"Feature","properties":{"Facility ID":848,"Name":"Ellis Hospital - Bellevue Woman's Care Center Division","Type":"Hospital","Street Address":"2210 Troy Road","City":"Niskayuna","County":"Schenectady","State":"New York","Zip Code":12309,"Facility Phone Number":5183469400,"Facility Location":"(42.793575, -73.879089)"},"geometry":{"type":"Point","coordinates":[-73.879089,42.793575]}},{"type":"Feature","properties":{"Facility ID":598,"Name":"St Elizabeth Medical Center","Type":"Hospital","Street Address":"2209 Genesee St","City":"Utica","County":"Oneida","State":"New York","Zip Code":13501,"Facility Phone Number":3157988100,"Facility Location":"(43.083561, -75.267189)"},"geometry":{"type":"Point","coordinates":[-75.267189,43.083561]}},{"type":"Feature","properties":{"Facility ID":1445,"Name":"Harlem Hospital Center","Type":"Hospital","Street Address":"506 Lenox Avenue","City":"New York","County":"New York","State":"New York","Zip Code":10037,"Facility Phone Number":2129391000,"Facility Location":"(40.81435, -73.940506)"},"geometry":{"type":"Point","coordinates":[-73.940506,40.81435]}},{"type":"Feature","properties":{"Facility ID":589,"Name":"Rome Memorial Hospital, Inc","Type":"Hospital","Street Address":"1500 N James St","City":"Rome","County":"Oneida","State":"New York","Zip Code":13440,"Facility Phone Number":3153387000,"Facility Location":"(43.229935, -75.443466)"},"geometry":{"type":"Point","coordinates":[-75.443466,43.229935]}},{"type":"Feature","properties":{"Facility ID":306,"Name":"Adirondack Medical Center-Lake Placid Site","Type":"Hospital","Street Address":"203 Old Military Road","City":"Lake Placid","County":"Essex","State":"New York","Zip Code":12946,"Facility Phone Number":5185233311,"Facility Location":"(44.266376, -73.98455)"},"geometry":{"type":"Point","coordinates":[-73.98455,44.266376]}},{"type":"Feature","properties":{"Facility ID":377,"Name":"River Hospital, Inc.","Type":"Hospital","Street Address":"4 Fuller Street","City":"Alexandria Bay","County":"Jefferson","State":"New York","Zip Code":13607,"Facility Phone Number":3154822511,"Facility Location":"(44.337296, -75.919991)"},"geometry":{"type":"Point","coordinates":[-75.919991,44.337296]}},{"type":"Feature","properties":{"Facility ID":1153,"Name":"Wyoming County Community Hospital","Type":"Hospital","Street Address":"400 North Main Street","City":"Warsaw","County":"Wyoming","State":"New York","Zip Code":14569,"Facility Phone Number":5857868940,"Facility Location":"(42.753513, -78.132454)"},"geometry":{"type":"Point","coordinates":[-78.132454,42.753513]}},{"type":"Feature","properties":{"Facility ID":630,"Name":"St. Joseph's Hospital Health Center","Type":"Hospital","Street Address":"301 Prospect Avenue","City":"Syracuse","County":"Onondaga","State":"New York","Zip Code":13203,"Facility Phone Number":3154485111,"Facility Location":"(43.055744, -76.149384)"},"geometry":{"type":"Point","coordinates":[-76.149384,43.055744]}},{"type":"Feature","properties":{"Facility ID":135,"Name":"The University of Vermont Health Network - Champlain Valley Physicians Hospital","Type":"Hospital","Street Address":"75 Beekman St","City":"Plattsburgh","County":"Clinton","State":"New York","Zip Code":12901,"Facility Phone Number":5185612000,"Facility Location":"(44.700279, -73.466751)"},"geometry":{"type":"Point","coordinates":[-73.466751,44.700279]}},{"type":"Feature","properties":{"Facility ID":1460,"Name":"New York Eye and Ear Infirmary of Mount Sinai","Type":"Hospital","Street Address":"310 East 14th Street","City":"New York","County":"New York","State":"New York","Zip Code":10003,"Facility Phone Number":2129794300,"Facility Location":"(40.732189, -73.984711)"},"geometry":{"type":"Point","coordinates":[-73.984711,40.732189]}},{"type":"Feature","properties":{"Facility ID":1304,"Name":"NYU Langone Hospital-Brooklyn","Type":"Hospital","Street Address":"150 55th Street","City":"Brooklyn","County":"Kings","State":"New York","Zip Code":11220,"Facility Phone Number":7186307300,"Facility Location":"(40.646591, -74.020439)"},"geometry":{"type":"Point","coordinates":[-74.020439,40.646591]}},{"type":"Feature","properties":{"Facility ID":1169,"Name":"Montefiore Medical Center - Henry & Lucy Moses Div","Type":"Hospital","Street Address":"111 East 210th Street","City":"Bronx","County":"Bronx","State":"New York","Zip Code":10467,"Facility Phone Number":7189202001,"Facility Location":"(40.879951, -73.880562)"},"geometry":{"type":"Point","coordinates":[-73.880562,40.879951]}},{"type":"Feature","properties":{"Facility ID":968,"Name":"Garnet Health Medical Center - Catskills - G. Hermann Site","Type":"Hospital","Street Address":"8881 State Route 97","City":"Callicoon","County":"Sullivan","State":"New York","Zip Code":12723,"Facility Phone Number":8457943300,"Facility Location":"(41.74115, -75.046593)"},"geometry":{"type":"Point","coordinates":[-75.046593,41.74115]}},{"type":"Feature","properties":{"Facility ID":339,"Name":"United Memorial Medical Center North Street Campus","Type":"Hospital","Street Address":"127 North St","City":"Batavia","County":"Genesee","State":"New York","Zip Code":14020,"Facility Phone Number":5853436030,"Facility Location":"(43.00404, -78.177475)"},"geometry":{"type":"Point","coordinates":[-78.177475,43.00404]}},{"type":"Feature","properties":{"Facility ID":181,"Name":"Vassar Brothers Medical Center","Type":"Hospital","Street Address":"45 Reade Place","City":"Poughkeepsie","County":"Dutchess","State":"New York","Zip Code":12601,"Facility Phone Number":8454548500,"Facility Location":"(41.694523, -73.935799)"},"geometry":{"type":"Point","coordinates":[-73.935799,41.694523]}},{"type":"Feature","properties":{"Facility ID":4,"Name":"Samaritan Hospital - Albany Memorial Campus","Type":"Hospital","Street Address":"600 Northern Boulevard","City":"Albany","County":"Albany","State":"New York","Zip Code":12204,"Facility Phone Number":5184713221,"Facility Location":"(42.674271, -73.749268)"},"geometry":{"type":"Point","coordinates":[-73.749268,42.674271]}},{"type":"Feature","properties":{"Facility ID":676,"Name":"Clifton Springs Hospital and Clinic","Type":"Hospital","Street Address":"2 Coulter Road","City":"Clifton Springs","County":"Ontario","State":"New York","Zip Code":14432,"Facility Phone Number":3154621311,"Facility Location":"(42.960537, -77.138863)"},"geometry":{"type":"Point","coordinates":[-77.138863,42.960537]}},{"type":"Feature","properties":{"Facility ID":1638,"Name":"Long Island Jewish Forest Hills","Type":"Hospital","Street Address":"102-01 66th Road","City":"Forest Hills","County":"Queens","State":"New York","Zip Code":11375,"Facility Phone Number":5165624060,"Facility Location":"(40.728745, -73.851036)"},"geometry":{"type":"Point","coordinates":[-73.851036,40.728745]}},{"type":"Feature","properties":{"Facility ID":1005,"Name":"Glens Falls Hospital","Type":"Hospital","Street Address":"100 Park Street","City":"Glens Falls","County":"Warren","State":"New York","Zip Code":12801,"Facility Phone Number":5189261000,"Facility Location":"(43.30735, -73.645996)"},"geometry":{"type":"Point","coordinates":[-73.645996,43.30735]}},{"type":"Feature","properties":{"Facility ID":1039,"Name":"NewYork-Presbyterian/Hudson Valley Hospital","Type":"Hospital","Street Address":"1980 Crompond Road","City":"Cortlandt Manor","County":"Westchester","State":"New York","Zip Code":10567,"Facility Phone Number":9147379000,"Facility Location":"(41.291512, -73.893341)"},"geometry":{"type":"Point","coordinates":[-73.893341,41.291512]}},{"type":"Feature","properties":{"Facility ID":330,"Name":"Nathan Littauer Hospital","Type":"Hospital","Street Address":"99 East State Street","City":"Gloversville","County":"Fulton","State":"New York","Zip Code":12078,"Facility Phone Number":5187258621,"Facility Location":"(43.068096, -74.330643)"},"geometry":{"type":"Point","coordinates":[-74.330643,43.068096]}},{"type":"Feature","properties":{"Facility ID":292,"Name":"Sisters of Charity Hospital - St. Joseph Campus","Type":"Hospital","Street Address":"2605 Harlem Road","City":"Cheektowaga","County":"Erie","State":"New York","Zip Code":14225,"Facility Phone Number":7168912400,"Facility Location":"(42.914642, -78.784241)"},"geometry":{"type":"Point","coordinates":[-78.784241,42.914642]}},{"type":"Feature","properties":{"Facility ID":528,"Name":"Nassau University Medical Center","Type":"Hospital","Street Address":"2201 Hempstead Turnpike","City":"East Meadow","County":"Nassau","State":"New York","Zip Code":11554,"Facility Phone Number":5165720123,"Facility Location":"(40.725353, -73.554321)"},"geometry":{"type":"Point","coordinates":[-73.554321,40.725353]}},{"type":"Feature","properties":{"Facility ID":1099,"Name":"SJRH - Park Care Pavilion","Type":"Hospital","Street Address":"Two Park Avenue","City":"Yonkers","County":"Westchester","State":"New York","Zip Code":10703,"Facility Phone Number":9149647300,"Facility Location":"(40.939613, -73.892181)"},"geometry":{"type":"Point","coordinates":[-73.892181,40.939613]}},{"type":"Feature","properties":{"Facility ID":1045,"Name":"White Plains Hospital Center","Type":"Hospital","Street Address":"41 East Post Road","City":"White Plains","County":"Westchester","State":"New York","Zip Code":10601,"Facility Phone Number":9146810600,"Facility Location":"(41.026333, -73.769585)"},"geometry":{"type":"Point","coordinates":[-73.769585,41.026333]}},{"type":"Feature","properties":{"Facility ID":9059,"Name":"Crouse Hospital - Commonwealth Division","Type":"Hospital","Street Address":"6010 East Malloy Road","City":"Syracuse","County":"Onondaga","State":"New York","Zip Code":13211,"Facility Phone Number":3154342470,"Facility Location":"(43.099155, -76.098633)"},"geometry":{"type":"Point","coordinates":[-76.098633,43.099155]}},{"type":"Feature","properties":{"Facility ID":1320,"Name":"University Hospital of Brooklyn","Type":"Hospital","Street Address":"445 Lenox Road","City":"Brooklyn","County":"Kings","State":"New York","Zip Code":11203,"Facility Phone Number":7182702401,"Facility Location":"(40.654518, -73.945045)"},"geometry":{"type":"Point","coordinates":[-73.945045,40.654518]}},{"type":"Feature","properties":{"Facility ID":383,"Name":"Lewis County General Hospital","Type":"Hospital","Street Address":"7785 North State Street","City":"Lowville","County":"Lewis","State":"New York","Zip Code":13367,"Facility Phone Number":3153765200,"Facility Location":"(43.795677, -75.498146)"},"geometry":{"type":"Point","coordinates":[-75.498146,43.795677]}},{"type":"Feature","properties":{"Facility ID":1446,"Name":"NYU Langone Orthopedic Hospital","Type":"Hospital","Street Address":"301 East 17th Street","City":"New York","County":"New York","State":"New York","Zip Code":10003,"Facility Phone Number":2125986000,"Facility Location":"(40.734127, -73.98307)"},"geometry":{"type":"Point","coordinates":[-73.98307,40.734127]}},{"type":"Feature","properties":{"Facility ID":103,"Name":"UPMC Chautauqua at WCA","Type":"Hospital","Street Address":"207 Foote Avenue","City":"Jamestown","County":"Chautauqua","State":"New York","Zip Code":14701,"Facility Phone Number":7164870141,"Facility Location":"(42.091236, -79.232872)"},"geometry":{"type":"Point","coordinates":[-79.232872,42.091236]}},{"type":"Feature","properties":{"Facility ID":401,"Name":"Community Memorial Hospital Inc","Type":"Hospital","Street Address":"150 Broad St","City":"Hamilton","County":"Madison","State":"New York","Zip Code":13346,"Facility Phone Number":3158241100,"Facility Location":"(42.814011, -75.541962)"},"geometry":{"type":"Point","coordinates":[-75.541962,42.814011]}},{"type":"Feature","properties":{"Facility ID":39,"Name":"Memorial Hosp of Wm F & Gertrude F Jones A/K/A Jones Memorial Hosp","Type":"Hospital","Street Address":"191 North Main Street","City":"Wellsville","County":"Allegany","State":"New York","Zip Code":14895,"Facility Phone Number":5855931100,"Facility Location":"(42.122921, -77.949974)"},"geometry":{"type":"Point","coordinates":[-77.949974,42.122921]}},{"type":"Feature","properties":{"Facility ID":739,"Name":"A.O. Fox Memorial Hospital","Type":"Hospital","Street Address":"One Norton Avenue","City":"Oneonta","County":"Otsego","State":"New York","Zip Code":13820,"Facility Phone Number":6074322000,"Facility Location":"(42.457405, -75.053261)"},"geometry":{"type":"Point","coordinates":[-75.053261,42.457405]}},{"type":"Feature","properties":{"Facility ID":280,"Name":"Bertrand Chaffee Hospital","Type":"Hospital","Street Address":"224 East Main St","City":"Springville","County":"Erie","State":"New York","Zip Code":14141,"Facility Phone Number":7165922871,"Facility Location":"(42.508575, -78.659103)"},"geometry":{"type":"Point","coordinates":[-78.659103,42.508575]}},{"type":"Feature","properties":{"Facility ID":925,"Name":"Good Samaritan Hospital Medical Center","Type":"Hospital","Street Address":"1000 Montauk Highway","City":"West Islip","County":"Suffolk","State":"New York","Zip Code":11795,"Facility Phone Number":6313763000,"Facility Location":"(40.696751, -73.286324)"},"geometry":{"type":"Point","coordinates":[-73.286324,40.696751]}},{"type":"Feature","properties":{"Facility ID":3975,"Name":"New York-Presbyterian Hospital - Allen Hospital","Type":"Hospital","Street Address":"5141 Broadway","City":"New York","County":"New York","State":"New York","Zip Code":10034,"Facility Phone Number":2129324000,"Facility Location":"(40.872475, -73.912773)"},"geometry":{"type":"Point","coordinates":[-73.912773,40.872475]}},{"type":"Feature","properties":{"Facility ID":146,"Name":"Columbia Memorial Hospital","Type":"Hospital","Street Address":"71 Prospect Ave","City":"Hudson","County":"Columbia","State":"New York","Zip Code":12534,"Facility Phone Number":5188287601,"Facility Location":"(42.246239, -73.776306)"},"geometry":{"type":"Point","coordinates":[-73.776306,42.246239]}},{"type":"Feature","properties":{"Facility ID":756,"Name":"Samaritan Hospital","Type":"Hospital","Street Address":"2215 Burdett Avenue","City":"Troy","County":"Rensselaer","State":"New York","Zip Code":12180,"Facility Phone Number":5182713300,"Facility Location":"(42.733574, -73.671455)"},"geometry":{"type":"Point","coordinates":[-73.671455,42.733574]}},{"type":"Feature","properties":{"Facility ID":1288,"Name":"Brooklyn Hospital Center - Downtown Campus","Type":"Hospital","Street Address":"121 Dekalb Avenue","City":"Brooklyn","County":"Kings","State":"New York","Zip Code":11201,"Facility Phone Number":7182508000,"Facility Location":"(40.689842, -73.977455)"},"geometry":{"type":"Point","coordinates":[-73.977455,40.689842]}},{"type":"Feature","properties":{"Facility ID":518,"Name":"Long Island Jewish Valley Stream","Type":"Hospital","Street Address":"900 Franklin Avenue","City":"Valley Stream","County":"Nassau","State":"New York","Zip Code":11580,"Facility Phone Number":5162566000,"Facility Location":"(40.681789, -73.685814)"},"geometry":{"type":"Point","coordinates":[-73.685814,40.681789]}},{"type":"Feature","properties":{"Facility ID":3058,"Name":"Montefiore Med Center - Jack D Weiler Hosp of A Einstein College Div","Type":"Hospital","Street Address":"1825 Eastchester Road","City":"Bronx","County":"Bronx","State":"New York","Zip Code":10461,"Facility Phone Number":7189042001,"Facility Location":"(40.849575, -73.845055)"},"geometry":{"type":"Point","coordinates":[-73.845055,40.849575]}},{"type":"Feature","properties":{"Facility ID":708,"Name":"Bon Secours Community Hospital","Type":"Hospital","Street Address":"160 East Main Street","City":"Port Jervis","County":"Orange","State":"New York","Zip Code":12771,"Facility Phone Number":8458565351,"Facility Location":"(41.367916, -74.682487)"},"geometry":{"type":"Point","coordinates":[-74.682487,41.367916]}},{"type":"Feature","properties":{"Facility ID":678,"Name":"F.F. Thompson Hospital","Type":"Hospital","Street Address":"350 Parrish Street","City":"Canandaigua","County":"Ontario","State":"New York","Zip Code":14424,"Facility Phone Number":7163966527,"Facility Location":"(42.875027, -77.289818)"},"geometry":{"type":"Point","coordinates":[-77.289818,42.875027]}},{"type":"Feature","properties":{"Facility ID":412,"Name":"Unity Specialty Hospital","Type":"Hospital","Street Address":"89 Genesee Street","City":"Rochester","County":"Monroe","State":"New York","Zip Code":14611,"Facility Phone Number":5857237000,"Facility Location":"(43.14901, -77.636139)"},"geometry":{"type":"Point","coordinates":[-77.636139,43.14901]}},{"type":"Feature","properties":{"Facility ID":1129,"Name":"Phelps Hospital","Type":"Hospital","Street Address":"701 North Broadway","City":"Sleepy Hollow","County":"Westchester","State":"New York","Zip Code":10591,"Facility Phone Number":9143663000,"Facility Location":"(41.107639, -73.859665)"},"geometry":{"type":"Point","coordinates":[-73.859665,41.107639]}},{"type":"Feature","properties":{"Facility ID":1738,"Name":"Richmond University Medical Center","Type":"Hospital","Street Address":"355 Bard Avenue","City":"Staten Island","County":"Richmond","State":"New York","Zip Code":10310,"Facility Phone Number":7188182413,"Facility Location":"(40.635807, -74.106674)"},"geometry":{"type":"Point","coordinates":[-74.106674,40.635807]}},{"type":"Feature","properties":{"Facility ID":889,"Name":"Stony Brook Southampton Hospital","Type":"Hospital","Street Address":"240 Meeting House Lane","City":"Southampton","County":"Suffolk","State":"New York","Zip Code":11968,"Facility Phone Number":6317268200,"Facility Location":"(40.885757, -72.380692)"},"geometry":{"type":"Point","coordinates":[-72.380692,40.885757]}},{"type":"Feature","properties":{"Facility ID":1466,"Name":"Mount Sinai West","Type":"Hospital","Street Address":"1000 10th Avenue","City":"New York","County":"New York","State":"New York","Zip Code":10019,"Facility Phone Number":2125237225,"Facility Location":"(40.770092, -73.987785)"},"geometry":{"type":"Point","coordinates":[-73.987785,40.770092]}},{"type":"Feature","properties":{"Facility ID":180,"Name":"Mid-Hudson Valley Division of Westchester Medical Center","Type":"Hospital","Street Address":"241 North Road","City":"Poughkeepsie","County":"Dutchess","State":"New York","Zip Code":12601,"Facility Phone Number":8454835000,"Facility Location":"(41.717392, -73.92942)"},"geometry":{"type":"Point","coordinates":[-73.92942,41.717392]}},{"type":"Feature","properties":{"Facility ID":1122,"Name":"New York-Presbyterian Westchester","Type":"Hospital","Street Address":"55 Palmer Avenue","City":"Bronxville","County":"Westchester","State":"New York","Zip Code":10708,"Facility Phone Number":9147871000,"Facility Location":"(40.941673, -73.836334)"},"geometry":{"type":"Point","coordinates":[-73.836334,40.941673]}},{"type":"Feature","properties":{"Facility ID":1168,"Name":"Montefiore Medical Center-Wakefield Hospital","Type":"Hospital","Street Address":"600 East 233rd Street","City":"Bronx","County":"Bronx","State":"New York","Zip Code":10466,"Facility Phone Number":7189209000,"Facility Location":"(40.894569, -73.86142)"},"geometry":{"type":"Point","coordinates":[-73.86142,40.894569]}},{"type":"Feature","properties":{"Facility ID":118,"Name":"St. Joseph's Hospital","Type":"Hospital","Street Address":"555 St. Joseph's Boulevard","City":"Elmira","County":"Chemung","State":"New York","Zip Code":14901,"Facility Phone Number":6077336541,"Facility Location":"(42.091446, -76.79686)"},"geometry":{"type":"Point","coordinates":[-76.79686,42.091446]}},{"type":"Feature","properties":{"Facility ID":471,"Name":"The Unity Hospital of Rochester","Type":"Hospital","Street Address":"1555 Long Pond Road","City":"Rochester","County":"Monroe","State":"New York","Zip Code":14626,"Facility Phone Number":5857237000,"Facility Location":"(43.191551, -77.701538)"},"geometry":{"type":"Point","coordinates":[-77.701538,43.191551]}},{"type":"Feature","properties":{"Facility ID":484,"Name":"St. Mary's Healthcare","Type":"Hospital","Street Address":"427 Guy Park Avenue","City":"Amsterdam","County":"Montgomery","State":"New York","Zip Code":12010,"Facility Phone Number":5188421900,"Facility Location":"(42.953758, -74.216194)"},"geometry":{"type":"Point","coordinates":[-74.216194,42.953758]}},{"type":"Feature","properties":{"Facility ID":1178,"Name":"BronxCare Hospital Center","Type":"Hospital","Street Address":"1650 Grand Concourse","City":"Bronx","County":"Bronx","State":"New York","Zip Code":10457,"Facility Phone Number":7189018800,"Facility Location":"(40.843609, -73.911545)"},"geometry":{"type":"Point","coordinates":[-73.911545,40.843609]}},{"type":"Feature","properties":{"Facility ID":1301,"Name":"Kings County Hospital Center","Type":"Hospital","Street Address":"451 Clarkson Avenue","City":"Brooklyn","County":"Kings","State":"New York","Zip Code":11203,"Facility Phone Number":7182453901,"Facility Location":"(40.655823, -73.944099)"},"geometry":{"type":"Point","coordinates":[-73.944099,40.655823]}},{"type":"Feature","properties":{"Facility ID":752,"Name":"Putnam Hospital","Type":"Hospital","Street Address":"670 Stoneleigh Avenue","City":"Carmel","County":"Putnam","State":"New York","Zip Code":10512,"Facility Phone Number":8452795711,"Facility Location":"(41.384766, -73.664413)"},"geometry":{"type":"Point","coordinates":[-73.664413,41.384766]}},{"type":"Feature","properties":{"Facility ID":1324,"Name":"Mount Sinai Brooklyn","Type":"Hospital","Street Address":"3201 Kings Highway","City":"Brooklyn","County":"Kings","State":"New York","Zip Code":11234,"Facility Phone Number":7189513000,"Facility Location":"(40.617954, -73.94323)"},"geometry":{"type":"Point","coordinates":[-73.94323,40.617954]}},{"type":"Feature","properties":{"Facility ID":527,"Name":"Mount Sinai South Nassau","Type":"Hospital","Street Address":"One Healthy Way","City":"Oceanside","County":"Nassau","State":"New York","Zip Code":11572,"Facility Phone Number":5166323000,"Facility Location":"(40.649601, -73.6315)"},"geometry":{"type":"Point","coordinates":[-73.6315,40.649601]}},{"type":"Feature","properties":{"Facility ID":1046,"Name":"Winifred Masterson Burke Rehabilitation Hospital","Type":"Hospital","Street Address":"785 Mamaroneck Avenue","City":"White Plains","County":"Westchester","State":"New York","Zip Code":10605,"Facility Phone Number":9149480050,"Facility Location":"(41.015186, -73.75573)"},"geometry":{"type":"Point","coordinates":[-73.75573,41.015186]}},{"type":"Feature","properties":{"Facility ID":818,"Name":"Saratoga Hospital","Type":"Hospital","Street Address":"211 Church Street","City":"Saratoga Springs","County":"Saratoga","State":"New York","Zip Code":12866,"Facility Phone Number":5185873222,"Facility Location":"(43.084843, -73.796341)"},"geometry":{"type":"Point","coordinates":[-73.796341,43.084843]}},{"type":"Feature","properties":{"Facility ID":804,"Name":"Massena Hospital","Type":"Hospital","Street Address":"1 Hospital Drive","City":"Massena","County":"Saint Lawrence","State":"New York","Zip Code":13662,"Facility Phone Number":3157641711,"Facility Location":"(44.936363, -74.907951)"},"geometry":{"type":"Point","coordinates":[-74.907951,44.936363]}},{"type":"Feature","properties":{"Facility ID":913,"Name":"Huntington Hospital","Type":"Hospital","Street Address":"270 Park Avenue","City":"Huntington","County":"Suffolk","State":"New York","Zip Code":11743,"Facility Phone Number":6313512200,"Facility Location":"(40.879513, -73.417442)"},"geometry":{"type":"Point","coordinates":[-73.417442,40.879513]}},{"type":"Feature","properties":{"Facility ID":324,"Name":"Adirondack Medical Center-Saranac Lake Site","Type":"Hospital","Street Address":"2233 State Route 86, P.O. Box 471","City":"Saranac Lake","County":"Franklin","State":"New York","Zip Code":12983,"Facility Phone Number":5188914141,"Facility Location":"(44.343929, -74.144363)"},"geometry":{"type":"Point","coordinates":[-74.144363,44.343929]}},{"type":"Feature","properties":{"Facility ID":989,"Name":"HealthAlliance Hospital Mary's Avenue Campus","Type":"Hospital","Street Address":"105 Marys Avenue","City":"Kingston","County":"Ulster","State":"New York","Zip Code":12401,"Facility Phone Number":8453382500,"Facility Location":"(41.922276, -73.999237)"},"geometry":{"type":"Point","coordinates":[-73.999237,41.922276]}},{"type":"Feature","properties":{"Facility ID":1286,"Name":"Brookdale Hospital Medical Center","Type":"Hospital","Street Address":"1 Brookdale Plaza","City":"Brooklyn","County":"Kings","State":"New York","Zip Code":"11212-3139","Facility Phone Number":7182405276,"Facility Location":"(40.655066, -73.912579)"},"geometry":{"type":"Point","coordinates":[-73.912579,40.655066]}},{"type":"Feature","properties":{"Facility ID":699,"Name":"Garnet Health Medical Center","Type":"Hospital","Street Address":"707 East Main Street","City":"Middletown","County":"Orange","State":"New York","Zip Code":10940,"Facility Phone Number":8453331000,"Facility Location":"(41.439953, -74.368744)"},"geometry":{"type":"Point","coordinates":[-74.368744,41.439953]}},{"type":"Feature","properties":{"Facility ID":413,"Name":"Strong Memorial Hospital","Type":"Hospital","Street Address":"601 Elmwood Avenue","City":"Rochester","County":"Monroe","State":"New York","Zip Code":14642,"Facility Phone Number":5852758387,"Facility Location":"(43.124336, -77.623779)"},"geometry":{"type":"Point","coordinates":[-77.623779,43.124336]}},{"type":"Feature","properties":{"Facility ID":192,"Name":"Northern Dutchess Hospital","Type":"Hospital","Street Address":"6511 Springbrook Avenue","City":"Rhinebeck","County":"Dutchess","State":"New York","Zip Code":12572,"Facility Phone Number":8458713001,"Facility Location":"(41.934223, -73.912331)"},"geometry":{"type":"Point","coordinates":[-73.912331,41.934223]}},{"type":"Feature","properties":{"Facility ID":1454,"Name":"Metropolitan Hospital Center","Type":"Hospital","Street Address":"1901 First Avenue","City":"New York","County":"New York","State":"New York","Zip Code":10029,"Facility Phone Number":2124238993,"Facility Location":"(40.784775, -73.94368)"},"geometry":{"type":"Point","coordinates":[-73.94368,40.784775]}},{"type":"Feature","properties":{"Facility ID":636,"Name":"Crouse Hospital","Type":"Hospital","Street Address":"736 Irving Avenue","City":"Syracuse","County":"Onondaga","State":"New York","Zip Code":13210,"Facility Phone Number":3154707111,"Facility Location":"(43.041107, -76.137932)"},"geometry":{"type":"Point","coordinates":[-76.137932,43.041107]}},{"type":"Feature","properties":{"Facility ID":213,"Name":"Mercy Hospital of Buffalo","Type":"Hospital","Street Address":"565 Abbott Road","City":"Buffalo","County":"Erie","State":"New York","Zip Code":14220,"Facility Phone Number":7168267000,"Facility Location":"(42.84853, -78.812859)"},"geometry":{"type":"Point","coordinates":[-78.812859,42.84853]}},{"type":"Feature","properties":{"Facility ID":85,"Name":"Auburn Community Hospital","Type":"Hospital","Street Address":"17 Lansing Street","City":"Auburn","County":"Cayuga","State":"New York","Zip Code":13021,"Facility Phone Number":3152557209,"Facility Location":"(42.940811, -76.564758)"},"geometry":{"type":"Point","coordinates":[-76.564758,42.940811]}},{"type":"Feature","properties":{"Facility ID":10223,"Name":"Calvary Hospital","Type":"Hospital","Street Address":"150 55th Street","City":"Brooklyn","County":"Kings","State":"New York","Zip Code":11220,"Facility Phone Number":"","Facility Location":"(40.646444, -74.021033)"},"geometry":{"type":"Point","coordinates":[-74.021033,40.646444]}},{"type":"Feature","properties":{"Facility ID":1723,"Name":"Mercy Hospital - Mercy Hospital Orchard Park Division","Type":"Hospital","Street Address":"3669 Southwestern Blvd","City":"Orchard Park","County":"Erie","State":"New York","Zip Code":14127,"Facility Phone Number":7166620500,"Facility Location":"(42.781742, -78.77224)"},"geometry":{"type":"Point","coordinates":[-78.77224,42.781742]}},{"type":"Feature","properties":{"Facility ID":1309,"Name":"Interfaith Medical Center","Type":"Hospital","Street Address":"1545 Atlantic Avenue","City":"Brooklyn","County":"Kings","State":"New York","Zip Code":11213,"Facility Phone Number":7189357000,"Facility Location":"(40.67794, -73.937515)"},"geometry":{"type":"Point","coordinates":[-73.937515,40.67794]}},{"type":"Feature","properties":{"Facility ID":111,"Name":"Westfield Memorial Hospital Inc","Type":"Hospital","Street Address":"189 E Main Street","City":"Westfield","County":"Chautauqua","State":"New York","Zip Code":14787,"Facility Phone Number":7163264921,"Facility Location":"(42.327965, -79.569412)"},"geometry":{"type":"Point","coordinates":[-79.569412,42.327965]}},{"type":"Feature","properties":{"Facility ID":551,"Name":"St. Joseph Hospital","Type":"Hospital","Street Address":"4295 Hempstead Turnpike","City":"Bethpage","County":"Nassau","State":"New York","Zip Code":11714,"Facility Phone Number":5165796000,"Facility Location":"(40.725853, -73.478714)"},"geometry":{"type":"Point","coordinates":[-73.478714,40.725853]}},{"type":"Feature","properties":{"Facility ID":10139,"Name":"New York-Presbyterian David H. Koch Center","Type":"Hospital","Street Address":"1283 York Avenue","City":"New York","County":"New York","State":"New York","Zip Code":10065,"Facility Phone Number":"","Facility Location":"(40.764794, -73.955346)"},"geometry":{"type":"Point","coordinates":[-73.955346,40.764794]}},{"type":"Feature","properties":{"Facility ID":1437,"Name":"New York-Presbyterian/Lower Manhattan Hospital","Type":"Hospital","Street Address":"170 William Street","City":"New York","County":"New York","State":"New York","Zip Code":10038,"Facility Phone Number":2123125175,"Facility Location":"(40.710426, -74.005486)"},"geometry":{"type":"Point","coordinates":[-74.005486,40.710426]}},{"type":"Feature","properties":{"Facility ID":829,"Name":"Ellis Hospital","Type":"Hospital","Street Address":"1101 Nott Street","City":"Schenectady","County":"Schenectady","State":"New York","Zip Code":12308,"Facility Phone Number":5182434000,"Facility Location":"(42.819839, -73.918747)"},"geometry":{"type":"Point","coordinates":[-73.918747,42.819839]}},{"type":"Feature","properties":{"Facility ID":694,"Name":"St Luke's Cornwall Hospital/Newburgh","Type":"Hospital","Street Address":"70 Dubois Street","City":"Newburgh","County":"Orange","State":"New York","Zip Code":12550,"Facility Phone Number":8455614400,"Facility Location":"(41.503017, -74.015129)"},"geometry":{"type":"Point","coordinates":[-74.015129,41.503017]}},{"type":"Feature","properties":{"Facility ID":1447,"Name":"Hospital for Special Surgery","Type":"Hospital","Street Address":"535 E 70th Street","City":"New York","County":"New York","State":"New York","Zip Code":10021,"Facility Phone Number":2126061236,"Facility Location":"(40.765381, -73.954185)"},"geometry":{"type":"Point","coordinates":[-73.954185,40.765381]}},{"type":"Feature","properties":{"Facility ID":1133,"Name":"St. Joseph's MC-St. Vincent's Westchester Division","Type":"Hospital","Street Address":"275 North Street","City":"Harrison","County":"Westchester","State":"New York","Zip Code":10528,"Facility Phone Number":9149255300,"Facility Location":"(40.989265, -73.710457)"},"geometry":{"type":"Point","coordinates":[-73.710457,40.989265]}},{"type":"Feature","properties":{"Facility ID":12,"Name":"Lakeview Center for Mental Health and Wellness","Type":"Hospital","Street Address":"29 East Cayuga Street","City":"Oswego","County":"Oswego","State":"New York","Zip Code":13126,"Facility Phone Number":3153495526,"Facility Location":"(43.459419, -76.506788)"},"geometry":{"type":"Point","coordinates":[-76.506788,43.459419]}},{"type":"Feature","properties":{"Facility ID":128,"Name":"Chenango Memorial Hospital Inc","Type":"Hospital","Street Address":"179 North Broad St","City":"Norwich","County":"Chenango","State":"New York","Zip Code":13815,"Facility Phone Number":6073374111,"Facility Location":"(42.541813, -75.524773)"},"geometry":{"type":"Point","coordinates":[-75.524773,42.541813]}},{"type":"Feature","properties":{"Facility ID":9531,"Name":"URMC Strong West","Type":"Hospital","Street Address":"156 West Avenue","City":"Brockport","County":"Monroe","State":"New York","Zip Code":14420,"Facility Phone Number":5857851000,"Facility Location":"(43.220116, -77.944695)"},"geometry":{"type":"Point","coordinates":[-77.944695,43.220116]}},{"type":"Feature","properties":{"Facility ID":583,"Name":"Mount St. Mary's Hospital and Health Center","Type":"Hospital","Street Address":"5300 Military Road","City":"Lewiston","County":"Niagara","State":"New York","Zip Code":14092,"Facility Phone Number":7162974800,"Facility Location":"(43.154659, -79.030556)"},"geometry":{"type":"Point","coordinates":[-79.030556,43.154659]}},{"type":"Feature","properties":{"Facility ID":1072,"Name":"Montefiore New Rochelle Hospital","Type":"Hospital","Street Address":"16 Guion Place","City":"New Rochelle","County":"Westchester","State":"New York","Zip Code":10802,"Facility Phone Number":9143653700,"Facility Location":"(40.913021, -73.787086)"},"geometry":{"type":"Point","coordinates":[-73.787086,40.913021]}},{"type":"Feature","properties":{"Facility ID":1124,"Name":"SJRH - Dobbs Ferry Pavillion","Type":"Hospital","Street Address":"128 Ashford Avenue","City":"Dobbs Ferry","County":"Westchester","State":"New York","Zip Code":10522,"Facility Phone Number":9146930700,"Facility Location":"(41.014721, -73.862259)"},"geometry":{"type":"Point","coordinates":[-73.862259,41.014721]}},{"type":"Feature","properties":{"Facility ID":924,"Name":"South Shore University Hospital","Type":"Hospital","Street Address":"301 East Main Street","City":"Bay Shore","County":"Suffolk","State":"New York","Zip Code":11706,"Facility Phone Number":6319683000,"Facility Location":"(40.725014, -73.240372)"},"geometry":{"type":"Point","coordinates":[-73.240372,40.725014]}},{"type":"Feature","properties":{"Facility ID":866,"Name":"Corning Hospital","Type":"Hospital","Street Address":"1 Guthrie Drive","City":"Corning","County":"Steuben","State":"New York","Zip Code":14830,"Facility Phone Number":6079377200,"Facility Location":"(42.141293, -77.047562)"},"geometry":{"type":"Point","coordinates":[-77.047562,42.141293]}},{"type":"Feature","properties":{"Facility ID":170,"Name":"Margaretville Hospital","Type":"Hospital","Street Address":"42084 State Highway 28","City":"Margaretville","County":"Delaware","State":"New York","Zip Code":12455,"Facility Phone Number":8455862631,"Facility Location":"(42.147694, -74.643089)"},"geometry":{"type":"Point","coordinates":[-74.643089,42.147694]}},{"type":"Feature","properties":{"Facility ID":1002,"Name":"Ellenville Regional Hospital","Type":"Hospital","Street Address":"10 Healthy Way","City":"Ellenville","County":"Ulster","State":"New York","Zip Code":12428,"Facility Phone Number":8456476400,"Facility Location":"(41.732235, -74.380661)"},"geometry":{"type":"Point","coordinates":[-74.380661,41.732235]}},{"type":"Feature","properties":{"Facility ID":1306,"Name":"NewYork-Presbyterian Brooklyn Methodist Hospital","Type":"Hospital","Street Address":"506 Sixth Street","City":"Brooklyn","County":"Kings","State":"New York","Zip Code":11215,"Facility Phone Number":7187803101,"Facility Location":"(40.668087, -73.978905)"},"geometry":{"type":"Point","coordinates":[-73.978905,40.668087]}},{"type":"Feature","properties":{"Facility ID":1469,"Name":"Mount Sinai Morningside","Type":"Hospital","Street Address":"1111 Amsterdam Avenue","City":"New York","County":"New York","State":"New York","Zip Code":10025,"Facility Phone Number":2125234295,"Facility Location":"(40.805912, -73.961639)"},"geometry":{"type":"Point","coordinates":[-73.961639,40.805912]}},{"type":"Feature","properties":{"Facility ID":1453,"Name":"Memorial Hospital for Cancer and Allied Diseases","Type":"Hospital","Street Address":"1275 York Avenue","City":"New York","County":"New York","State":"New York","Zip Code":10065,"Facility Phone Number":2126392000,"Facility Location":"(40.764386, -73.956812)"},"geometry":{"type":"Point","coordinates":[-73.956812,40.764386]}},{"type":"Feature","properties":{"Facility ID":565,"Name":"Eastern Niagara Hospital - Lockport Division","Type":"Hospital","Street Address":"521 East Avenue","City":"Lockport","County":"Niagara","State":"New York","Zip Code":14094,"Facility Phone Number":7165145700,"Facility Location":"(43.176472, -78.670998)"},"geometry":{"type":"Point","coordinates":[-78.670998,43.176472]}},{"type":"Feature","properties":{"Facility ID":367,"Name":"Samaritan Medical Center","Type":"Hospital","Street Address":"830 Washington Street","City":"Watertown","County":"Jefferson","State":"New York","Zip Code":13601,"Facility Phone Number":3157854000,"Facility Location":"(43.964928, -75.912827)"},"geometry":{"type":"Point","coordinates":[-75.912827,43.964928]}},{"type":"Feature","properties":{"Facility ID":779,"Name":"Good Samaritan Hospital of Suffern","Type":"Hospital","Street Address":"255 Lafayette Avenue","City":"Suffern","County":"Rockland","State":"New York","Zip Code":10901,"Facility Phone Number":8453685000,"Facility Location":"(41.112255, -74.133003)"},"geometry":{"type":"Point","coordinates":[-74.133003,41.112255]}},{"type":"Feature","properties":{"Facility ID":1061,"Name":"Montefiore Mount Vernon Hospital","Type":"Hospital","Street Address":"12 North 7th Avenue","City":"Mount Vernon","County":"Westchester","State":"New York","Zip Code":10550,"Facility Phone Number":9143616100,"Facility Location":"(40.912476, -73.840004)"},"geometry":{"type":"Point","coordinates":[-73.840004,40.912476]}},{"type":"Feature","properties":{"Facility ID":102,"Name":"UPMC Chautauqua at WCA","Type":"Hospital","Street Address":"51 Glasgow Avenue","City":"Jamestown","County":"Chautauqua","State":"New York","Zip Code":14701,"Facility Phone Number":7164870141,"Facility Location":"(42.091541, -79.245094)"},"geometry":{"type":"Point","coordinates":[-79.245094,42.091541]}},{"type":"Feature","properties":{"Facility ID":411,"Name":"Rochester General Hospital","Type":"Hospital","Street Address":"1425 Portland Avenue","City":"Rochester","County":"Monroe","State":"New York","Zip Code":14621,"Facility Phone Number":5859224000,"Facility Location":"(43.192619, -77.584503)"},"geometry":{"type":"Point","coordinates":[-77.584503,43.192619]}},{"type":"Feature","properties":{"Facility ID":891,"Name":"Stony Brook Eastern Long Island Hospital","Type":"Hospital","Street Address":"201 Manor Place","City":"Greenport","County":"Suffolk","State":"New York","Zip Code":11944,"Facility Phone Number":6314771000,"Facility Location":"(41.110958, -72.361282)"},"geometry":{"type":"Point","coordinates":[-72.361282,41.110958]}},{"type":"Feature","properties":{"Facility ID":1294,"Name":"NYC Health + Hospitals/South Brooklyn Health","Type":"Hospital","Street Address":"2601 Ocean Parkway","City":"Brooklyn","County":"Kings","State":"New York","Zip Code":11235,"Facility Phone Number":7186163000,"Facility Location":"(40.58662, -73.965797)"},"geometry":{"type":"Point","coordinates":[-73.965797,40.58662]}},{"type":"Feature","properties":{"Facility ID":1630,"Name":"Long Island Jewish Medical Center","Type":"Hospital","Street Address":"270-5 76th Avenue","City":"New Hyde Park","County":"Queens","State":"New York","Zip Code":11040,"Facility Phone Number":7184707764,"Facility Location":"(40.754363, -73.707388)"},"geometry":{"type":"Point","coordinates":[-73.707388,40.754363]}},{"type":"Feature","properties":{"Facility ID":1165,"Name":"Jacobi Medical Center","Type":"Hospital","Street Address":"1400 Pelham Parkway","City":"Bronx","County":"Bronx","State":"New York","Zip Code":10461,"Facility Phone Number":7189185000,"Facility Location":"(40.857388, -73.846741)"},"geometry":{"type":"Point","coordinates":[-73.846741,40.857388]}},{"type":"Feature","properties":{"Facility ID":1458,"Name":"New York-Presbyterian Hospital - New York Weill Cornell Center","Type":"Hospital","Street Address":"525 East 68th Street","City":"New York","County":"New York","State":"New York","Zip Code":10021,"Facility Phone Number":2127465454,"Facility Location":"(40.76408, -73.954926)"},"geometry":{"type":"Point","coordinates":[-73.954926,40.76408]}},{"type":"Feature","properties":{"Facility ID":1692,"Name":"Woodhull Medical & Mental Health Center","Type":"Hospital","Street Address":"760 Broadway","City":"Brooklyn","County":"Kings","State":"New York","Zip Code":11206,"Facility Phone Number":7189638101,"Facility Location":"(40.700535, -73.941711)"},"geometry":{"type":"Point","coordinates":[-73.941711,40.700535]}},{"type":"Feature","properties":{"Facility ID":43,"Name":"Our Lady of Lourdes Memorial Hospital","Type":"Hospital","Street Address":"169 Riverside Drive","City":"Binghamton","County":"Broome","State":"New York","Zip Code":13905,"Facility Phone Number":6077985111,"Facility Location":"(42.092606, -75.935646)"},"geometry":{"type":"Point","coordinates":[-75.935646,42.092606]}},{"type":"Feature","properties":{"Facility ID":1139,"Name":"Westchester Medical Center","Type":"Hospital","Street Address":"100 Woods Road","City":"Valhalla","County":"Westchester","State":"New York","Zip Code":10595,"Facility Phone Number":9144937018,"Facility Location":"(41.08773, -73.803993)"},"geometry":{"type":"Point","coordinates":[-73.803993,41.08773]}},{"type":"Feature","properties":{"Facility ID":1047,"Name":"New York-Presbyterian Westchester Behavioral Health Center","Type":"Hospital","Street Address":"21 Bloomingdale Road","City":"White Plains","County":"Westchester","State":"New York","Zip Code":10605,"Facility Phone Number":9146829100,"Facility Location":"(41.029835, -73.758293)"},"geometry":{"type":"Point","coordinates":[-73.758293,41.029835]}},{"type":"Feature","properties":{"Facility ID":218,"Name":"Sisters of Charity Hospital","Type":"Hospital","Street Address":"2157 Main Street","City":"Buffalo","County":"Erie","State":"New York","Zip Code":14214,"Facility Phone Number":7168621000,"Facility Location":"(42.92905, -78.849953)"},"geometry":{"type":"Point","coordinates":[-78.849953,42.92905]}},{"type":"Feature","properties":{"Facility ID":1633,"Name":"Queens Hospital Center","Type":"Hospital","Street Address":"82-68 164th Street","City":"Jamaica","County":"Queens","State":"New York","Zip Code":11432,"Facility Phone Number":7188832350,"Facility Location":"(40.71722, -73.803581)"},"geometry":{"type":"Point","coordinates":[-73.803581,40.71722]}},{"type":"Feature","properties":{"Facility ID":635,"Name":"University Hospital SUNY Health Science Center","Type":"Hospital","Street Address":"750 East Adams Street","City":"Syracuse","County":"Onondaga","State":"New York","Zip Code":13210,"Facility Phone Number":3154645540,"Facility Location":"(43.042622, -76.138809)"},"geometry":{"type":"Point","coordinates":[-76.138809,43.042622]}},{"type":"Feature","properties":{"Facility ID":511,"Name":"NYU Langone Hospital-Long Island","Type":"Hospital","Street Address":"259 First Street","City":"Mineola","County":"Nassau","State":"New York","Zip Code":11501,"Facility Phone Number":5166630333,"Facility Location":"(40.741699, -73.643082)"},"geometry":{"type":"Point","coordinates":[-73.643082,40.741699]}},{"type":"Feature","properties":{"Facility ID":817,"Name":"Clifton-Fine Hospital","Type":"Hospital","Street Address":"1014 Oswegatchie Trail PO Box 10","City":"Star Lake","County":"Saint Lawrence","State":"New York","Zip Code":13690,"Facility Phone Number":3158483351,"Facility Location":"(44.162724, -75.055809)"},"geometry":{"type":"Point","coordinates":[-75.055809,44.162724]}},{"type":"Feature","properties":{"Facility ID":8554,"Name":"A.O. Fox Memorial Hospital - Tri-Town Campus","Type":"Hospital","Street Address":"43 Pearl Street West","City":"Sidney","County":"Delaware","State":"New York","Zip Code":13838,"Facility Phone Number":6075612021,"Facility Location":"(42.30471, -75.39492)"},"geometry":{"type":"Point","coordinates":[-75.39492,42.30471]}},{"type":"Feature","properties":{"Facility ID":1626,"Name":"Elmhurst Hospital Center","Type":"Hospital","Street Address":"79-01 Broadway","City":"Elmhurst","County":"Queens","State":"New York","Zip Code":11373,"Facility Phone Number":7183344000,"Facility Location":"(40.74432, -73.885719)"},"geometry":{"type":"Point","coordinates":[-73.885719,40.74432]}},{"type":"Feature","properties":{"Facility ID":775,"Name":"Helen Hayes Hospital","Type":"Hospital","Street Address":"51 N Route 9W","City":"West Haverstraw","County":"Rockland","State":"New York","Zip Code":10993,"Facility Phone Number":8457864000,"Facility Location":"(41.213886, -73.986)"},"geometry":{"type":"Point","coordinates":[-73.986,41.213886]}},{"type":"Feature","properties":{"Facility ID":1175,"Name":"Calvary Hospital Inc","Type":"Hospital","Street Address":"1740-70 Eastchester Road","City":"Bronx","County":"Bronx","State":"New York","Zip Code":10461,"Facility Phone Number":7185182244,"Facility Location":"(40.847294, -73.844658)"},"geometry":{"type":"Point","coordinates":[-73.844658,40.847294]}},{"type":"Feature","properties":{"Facility ID":1438,"Name":"Bellevue Hospital Center","Type":"Hospital","Street Address":"462 First Avenue","City":"New York","County":"New York","State":"New York","Zip Code":10016,"Facility Phone Number":2125624132,"Facility Location":"(40.739605, -73.976509)"},"geometry":{"type":"Point","coordinates":[-73.976509,40.739605]}},{"type":"Feature","properties":{"Facility ID":325,"Name":"The University of Vermont Health Network - Alice Hyde Medical Center","Type":"Hospital","Street Address":"133 Park Street","City":"Malone","County":"Franklin","State":"New York","Zip Code":12953,"Facility Phone Number":5184833000,"Facility Location":"(44.85677, -74.291893)"},"geometry":{"type":"Point","coordinates":[-74.291893,44.85677]}},{"type":"Feature","properties":{"Facility ID":393,"Name":"Nicholas H. Noyes Memorial Hospital","Type":"Hospital","Street Address":"111 Clara Barton Street","City":"Dansville","County":"Livingston","State":"New York","Zip Code":14437,"Facility Phone Number":5853356001,"Facility Location":"(42.551964, -77.700195)"},"geometry":{"type":"Point","coordinates":[-77.700195,42.551964]}},{"type":"Feature","properties":{"Facility ID":1315,"Name":"Kingsbrook Jewish Medical Center","Type":"Hospital","Street Address":"585 Schenectady Avenue","City":"Brooklyn","County":"Kings","State":"New York","Zip Code":11203,"Facility Phone Number":7186045000,"Facility Location":"(40.659435, -73.934036)"},"geometry":{"type":"Point","coordinates":[-73.934036,40.659435]}},{"type":"Feature","properties":{"Facility ID":1637,"Name":"NewYork-Presbyterian/Queens","Type":"Hospital","Street Address":"56-45 Main Street","City":"Flushing","County":"Queens","State":"New York","Zip Code":11355,"Facility Phone Number":7186701021,"Facility Location":"(40.747517, -73.826035)"},"geometry":{"type":"Point","coordinates":[-73.826035,40.747517]}},{"type":"Feature","properties":{"Facility ID":628,"Name":"UPSTATE University Hospital at Community General","Type":"Hospital","Street Address":"4900 Broad Road","City":"Syracuse","County":"Onondaga","State":"New York","Zip Code":13215,"Facility Phone Number":3154925953,"Facility Location":"(43.007816, -76.17025)"},"geometry":{"type":"Point","coordinates":[-76.17025,43.007816]}},{"type":"Feature","properties":{"Facility ID":210,"Name":"Erie County Medical Center","Type":"Hospital","Street Address":"462 Grider Street","City":"Buffalo","County":"Erie","State":"New York","Zip Code":14215,"Facility Phone Number":7168983000,"Facility Location":"(42.92717, -78.829224)"},"geometry":{"type":"Point","coordinates":[-78.829224,42.92717]}},{"type":"Feature","properties":{"Facility ID":873,"Name":"Ira Davenport Memorial Hospital","Type":"Hospital","Street Address":"7571 State Route 54","City":"Bath","County":"Steuben","State":"New York","Zip Code":14810,"Facility Phone Number":6077768500,"Facility Location":"(42.372952, -77.278656)"},"geometry":{"type":"Point","coordinates":[-77.278656,42.372952]}},{"type":"Feature","properties":{"Facility ID":1463,"Name":"NYU Langone Hospitals","Type":"Hospital","Street Address":"550 First Avenue","City":"New York","County":"New York","State":"New York","Zip Code":10016,"Facility Phone Number":2122635500,"Facility Location":"(40.742874, -73.974159)"},"geometry":{"type":"Point","coordinates":[-73.974159,40.742874]}},{"type":"Feature","properties":{"Facility ID":1117,"Name":"Northern Westchester Hospital","Type":"Hospital","Street Address":"400 East Main Street","City":"Mount Kisco","County":"Westchester","State":"New York","Zip Code":10549,"Facility Phone Number":9146661303,"Facility Location":"(41.196774, -73.72451)"},"geometry":{"type":"Point","coordinates":[-73.72451,41.196774]}}]}