{"type":"FeatureCollection","features":[{"type":"Feature","properties":{"Facility ID":618,"Name":"Waterville Residential Care Center","Type":"Residential Health Care Facility","Street Address":"220 Tower Street","City":"Waterville","County":"Oneida","State":"New York","Zip Code":13480,"Facility Phone Number":3158414156,"Facility Location":"(40.572155, -73.990364)"},"geometry":{"type":"Point","coordinates":[-73.990364,40.572155]}},{"type":"Feature","properties":{"Facility ID":3117,"Name":"Hospice and Palliative Care of Chenango County","Type":"Hospice","Street Address":"33 Court Street","City":"Norwich","County":"Chenango","State":"New York","Zip Code":13815,"Facility Phone Number":6073343556,"Facility Location":"(40.572429, -73.999179)"},"geometry":{"type":"Point","coordinates":[-73.999179,40.572429]}},{"type":"Feature","properties":{"Facility ID":3341,"Name":"Jefferson County Public Health Service","Type":"Long Term Home Health Care Program","Street Address":"531 Meade Street","City":"Watertown","County":"Jefferson","State":"New York","Zip Code":13601,"Facility Phone Number":3157863770,"Facility Location":"(40.573044, -73.993019)"},"geometry":{"type":"Point","coordinates":[-73.993019,40.573044]}},{"type":"Feature","properties":{"Facility ID":3990,"Name":"HCR / HCR Home Care","Type":"Certified Home Health Agency","Street Address":"85 Metro Park","City":"Rochester","County":"Monroe","State":"New York","Zip Code":14623,"Facility Phone Number":5852721930,"Facility Location":"(40.573448, -73.994919)"},"geometry":{"type":"Point","coordinates":[-73.994919,40.573448]}},{"type":"Feature","properties":{"Facility ID":7234,"Name":"Hospice of New York","Type":"Hospice","Street Address":"30-30 47th Avenue, Suite 635","City":"Long Island City","County":"Queens","State":"New York","Zip Code":11101,"Facility Phone Number":7184721999,"Facility Location":"(40.574451, -74.002066)"},"geometry":{"type":"Point","coordinates":[-74.002066,40.574451]}},{"type":"Feature","properties":{"Facility ID":7758,"Name":"Northeast Center for Rehabilitation and Brain Injury","Type":"Residential Health Care Facility","Street Address":"300 Grant Ave","City":"Lake Katrine","County":"Ulster","State":"New York","Zip Code":12449,"Facility Phone Number":8453363500,"Facility Location":"(40.575246, -73.843793)"},"geometry":{"type":"Point","coordinates":[-73.843793,40.575246]}},{"type":"Feature","properties":{"Facility ID":1218,"Name":"Beth Abraham Center for Rehabilitation and Nursing","Type":"Residential Health Care Facility","Street Address":"612 Allerton Avenue","City":"Bronx","County":"Bronx","State":"New York","Zip Code":10467,"Facility Phone Number":7188813000,"Facility Location":"(40.577593, -73.845161)"},"geometry":{"type":"Point","coordinates":[-73.845161,40.577593]}},{"type":"Feature","properties":{"Facility ID":1833,"Name":"Long Island Community Hospital at NYU Langone Health Home Care","Type":"Certified Home Health Agency","Street Address":"103 West Main Street","City":"Patchogue","County":"Suffolk","State":"New York","Zip Code":11772,"Facility Phone Number":6317583600,"Facility Location":"(40.57827, -73.835688)"},"geometry":{"type":"Point","coordinates":[-73.835688,40.57827]}},{"type":"Feature","properties":{"Facility ID":123,"Name":"Chemung County Health Center-Nursing Facility","Type":"Residential Health Care Facility","Street Address":"103 Washington Street","City":"Elmira","County":"Chemung","State":"New York","Zip Code":14901,"Facility Phone Number":6077372001,"Facility Location":"(40.578274, -73.939247)"},"geometry":{"type":"Point","coordinates":[-73.939247,40.578274]}},{"type":"Feature","properties":{"Facility ID":15032,"Name":"Maple Rest","Type":"Adult Home","Street Address":"61 Rollstone Avenue","City":"West Sayville","County":"Suffolk","State":"New York","Zip Code":11796,"Facility Phone Number":6315894840,"Facility Location":"(40.578716, -73.835403)"},"geometry":{"type":"Point","coordinates":[-73.835403,40.578716]}},{"type":"Feature","properties":{"Facility ID":14872,"Name":"Mount View Assisted Living","Type":"Adult Home","Street Address":"5465 Upper Mountain Road","City":"Lockport","County":"Niagara","State":"New York","Zip Code":14094,"Facility Phone Number":7164330790,"Facility Location":"(40.579185, -73.834702)"},"geometry":{"type":"Point","coordinates":[-73.834702,40.579185]}},{"type":"Feature","properties":{"Facility ID":14642,"Name":"Faatz-Crofut Home for the Elderly","Type":"Adult Home","Street Address":"46 Grant Avenue","City":"Auburn","County":"Cayuga","State":"New York","Zip Code":13021,"Facility Phone Number":3152536141,"Facility Location":"(40.579437, -73.833862)"},"geometry":{"type":"Point","coordinates":[-73.833862,40.579437]}},{"type":"Feature","properties":{"Facility ID":5904,"Name":"Queens Boulevard Extended Care Facility","Type":"Residential Health Care Facility","Street Address":"61-11 Queens Boulevard","City":"Woodside","County":"Queens","State":"New York","Zip Code":11377,"Facility Phone Number":7182050287,"Facility Location":"(40.579643, -74.131454)"},"geometry":{"type":"Point","coordinates":[-74.131454,40.579643]}},{"type":"Feature","properties":{"Facility ID":14901,"Name":"Peregrine Senior Living at Onondaga Hill","Type":"Adult Home","Street Address":"4701 Peregrine Way","City":"Syracuse","County":"Onondaga","State":"New York","Zip Code":13207,"Facility Phone Number":3154698900,"Facility Location":"(40.581226, -74.131569)"},"geometry":{"type":"Point","coordinates":[-74.131569,40.581226]}},{"type":"Feature","properties":{"Facility ID":4823,"Name":"Richmond Center for Rehabilitation and Specialty Healthcare","Type":"Residential Health Care Facility","Street Address":"91 Tompkins Avenue","City":"Staten Island","County":"Richmond","State":"New York","Zip Code":10304,"Facility Phone Number":7188761200,"Facility Location":"(40.581375, -73.965714)"},"geometry":{"type":"Point","coordinates":[-73.965714,40.581375]}},{"type":"Feature","properties":{"Facility ID":14626,"Name":"Ideal Senior Living Center","Type":"Adult Home","Street Address":"600 High Avenue","City":"Endicott","County":"Broome","State":"New York","Zip Code":13760,"Facility Phone Number":6077867300,"Facility Location":"(40.583503, -73.933011)"},"geometry":{"type":"Point","coordinates":[-73.933011,40.583503]}},{"type":"Feature","properties":{"Facility ID":14676,"Name":"Crystal House Manor","Type":"Adult Home","Street Address":"97 Mills Street, P.O. Box 576","City":"Dover Plains","County":"Dutchess","State":"New York","Zip Code":12522,"Facility Phone Number":8458776400,"Facility Location":"(40.584164, -73.934738)"},"geometry":{"type":"Point","coordinates":[-73.934738,40.584164]}},{"type":"Feature","properties":{"Facility ID":14771,"Name":"The Village at Towngate","Type":"Adult Home","Street Address":"150 Towngate Road","City":"Rochester","County":"Monroe","State":"New York","Zip Code":14626,"Facility Phone Number":5852253010,"Facility Location":"(40.584415, -73.682816)"},"geometry":{"type":"Point","coordinates":[-73.682816,40.584415]}},{"type":"Feature","properties":{"Facility ID":682,"Name":"Elm Manor Nursing and Rehabilitation Center","Type":"Residential Health Care Facility","Street Address":"210 N Main Street","City":"Canandaigua","County":"Ontario","State":"New York","Zip Code":14424,"Facility Phone Number":5853943883,"Facility Location":"(40.58449, -73.672127)"},"geometry":{"type":"Point","coordinates":[-73.672127,40.58449]}},{"type":"Feature","properties":{"Facility ID":268,"Name":"McAuley Residence","Type":"Residential Health Care Facility","Street Address":"1503 Military Road","City":"Kenmore","County":"Erie","State":"New York","Zip Code":14217,"Facility Phone Number":7164476600,"Facility Location":"(40.584705, -73.682884)"},"geometry":{"type":"Point","coordinates":[-73.682884,40.584705]}},{"type":"Feature","properties":{"Facility ID":3881,"Name":"United Hospice","Type":"Hospice","Street Address":"11 Stokum Lane","City":"New City","County":"Rockland","State":"New York","Zip Code":10956,"Facility Phone Number":8456344974,"Facility Location":"(40.584869, -73.930634)"},"geometry":{"type":"Point","coordinates":[-73.930634,40.584869]}},{"type":"Feature","properties":{"Facility ID":171,"Name":"Mountainside Residential Care Center","Type":"Residential Health Care Facility","Street Address":"42158 State Highway #28","City":"Margaretville","County":"Delaware","State":"New York","Zip Code":12455,"Facility Phone Number":8455861800,"Facility Location":"(40.585377, -73.931381)"},"geometry":{"type":"Point","coordinates":[-73.931381,40.585377]}},{"type":"Feature","properties":{"Facility ID":14804,"Name":"Arkell Hall","Type":"Adult Home","Street Address":"55 Montgomery Street","City":"Canajoharie","County":"Montgomery","State":"New York","Zip Code":13317,"Facility Phone Number":5186735514,"Facility Location":"(40.585977, -73.817784)"},"geometry":{"type":"Point","coordinates":[-73.817784,40.585977]}},{"type":"Feature","properties":{"Facility ID":4706,"Name":"Americare Certified Special Services Inc","Type":"Certified Home Health Agency","Street Address":"5923 Strickland Avenue","City":"Brooklyn","County":"Kings","State":"New York","Zip Code":11234,"Facility Phone Number":7185353100,"Facility Location":"(40.590034, -73.667076)"},"geometry":{"type":"Point","coordinates":[-73.667076,40.590034]}},{"type":"Feature","properties":{"Facility ID":15121,"Name":"Brightview Tarrytown","Type":"Adult Home","Street Address":"581 Old White Plains Rd","City":"Tarrytown","County":"Westchester","State":"New York","Zip Code":10591,"Facility Phone Number":9142978594,"Facility Location":"(40.592949, -73.793602)"},"geometry":{"type":"Point","coordinates":[-73.793602,40.592949]}},{"type":"Feature","properties":{"Facility ID":5751,"Name":"Western New York State Veterans Home","Type":"Residential Health Care Facility","Street Address":"220 Richmond Avenue","City":"Batavia","County":"Genesee","State":"New York","Zip Code":14020,"Facility Phone Number":5853452000,"Facility Location":"(40.593209, -73.777591)"},"geometry":{"type":"Point","coordinates":[-73.777591,40.593209]}},{"type":"Feature","properties":{"Facility ID":6670,"Name":"Acacia Certified Home Care Company","Type":"Certified Home Health Agency","Street Address":"2150 Bleecker Street","City":"Utica","County":"Oneida","State":"New York","Zip Code":13501,"Facility Phone Number":3152660614,"Facility Location":"(40.593727, -73.797134)"},"geometry":{"type":"Point","coordinates":[-73.797134,40.593727]}},{"type":"Feature","properties":{"Facility ID":892,"Name":"San Simeon By the Sound Center for Nursing&Rehabilitation","Type":"Residential Health Care Facility","Street Address":"61700 Route 48, PO Box 2122","City":"Greenport","County":"Suffolk","State":"New York","Zip Code":11944,"Facility Phone Number":6314772110,"Facility Location":"(40.593884, -74.135338)"},"geometry":{"type":"Point","coordinates":[-74.135338,40.593884]}},{"type":"Feature","properties":{"Facility ID":5553,"Name":"Revival Home Health Care","Type":"Certified Home Health Agency","Street Address":"5350 Kings Highway","City":"Brooklyn","County":"Kings","State":"New York","Zip Code":11203,"Facility Phone Number":7186291000,"Facility Location":"(40.59404, -73.78437)"},"geometry":{"type":"Point","coordinates":[-73.78437,40.59404]}},{"type":"Feature","properties":{"Facility ID":4000,"Name":"Eddy Village Green","Type":"Residential Health Care Facility","Street Address":"421 W Columbia Street","City":"Cohoes","County":"Albany","State":"New York","Zip Code":12047,"Facility Phone Number":5182375630,"Facility Location":"(40.59417, -74.062545)"},"geometry":{"type":"Point","coordinates":[-74.062545,40.59417]}},{"type":"Feature","properties":{"Facility ID":1705,"Name":"Dry Harbor Nursing Home","Type":"Residential Health Care Facility","Street Address":"61-35 Dry Harbor Road","City":"Middle Village","County":"Queens","State":"New York","Zip Code":11379,"Facility Phone Number":7185654200,"Facility Location":"(40.594276, -73.653496)"},"geometry":{"type":"Point","coordinates":[-73.653496,40.594276]}},{"type":"Feature","properties":{"Facility ID":1841,"Name":"The Valley View Certified Home Health Agency","Type":"Certified Home Health Agency","Street Address":"2 Glenmere Cove Road","City":"Goshen","County":"Orange","State":"New York","Zip Code":10924,"Facility Phone Number":8452912330,"Facility Location":"(40.594852, -73.995995)"},"geometry":{"type":"Point","coordinates":[-73.995995,40.594852]}},{"type":"Feature","properties":{"Facility ID":14867,"Name":"Briarwood Manor, Inc.","Type":"Adult Home","Street Address":"1001 Lincoln Avenue","City":"Lockport","County":"Niagara","State":"New York","Zip Code":14094,"Facility Phone Number":7164331513,"Facility Location":"(40.594929, -73.77906)"},"geometry":{"type":"Point","coordinates":[-73.77906,40.594929]}},{"type":"Feature","properties":{"Facility ID":14889,"Name":"The Nottingham Memory Care Residence","Type":"Adult Home","Street Address":"1307 Nottingham Road","City":"Jamesville","County":"Onondaga","State":"New York","Zip Code":13078,"Facility Phone Number":3154133945,"Facility Location":"(40.59511, -74.130527)"},"geometry":{"type":"Point","coordinates":[-74.130527,40.59511]}},{"type":"Feature","properties":{"Facility ID":7745,"Name":"Elmhurst Care Center, Inc","Type":"Residential Health Care Facility","Street Address":"100-17 23 Avenue","City":"East Elmhurst","County":"Queens","State":"New York","Zip Code":11369,"Facility Phone Number":7182058100,"Facility Location":"(40.59513, -73.941054)"},"geometry":{"type":"Point","coordinates":[-73.941054,40.59513]}},{"type":"Feature","properties":{"Facility ID":3390,"Name":"Montefiore Nyack Hospital","Type":"Long Term Home Health Care Program","Street Address":"One Blue Hill Plaza, 6th Floor","City":"Pearl River","County":"Rockland","State":"New York","Zip Code":10965,"Facility Phone Number":8456388700,"Facility Location":"(40.595257, -73.781097)"},"geometry":{"type":"Point","coordinates":[-73.781097,40.595257]}},{"type":"Feature","properties":{"Facility ID":871,"Name":"Maple City Rehabilitation and Nursing Center","Type":"Residential Health Care Facility","Street Address":"434 Monroe Avenue","City":"Hornell","County":"Steuben","State":"New York","Zip Code":14843,"Facility Phone Number":6073247740,"Facility Location":"(40.595349, -73.940935)"},"geometry":{"type":"Point","coordinates":[-73.940935,40.595349]}},{"type":"Feature","properties":{"Facility ID":464,"Name":"The Friendly Home","Type":"Residential Health Care Facility","Street Address":"3156 East Avenue","City":"Rochester","County":"Monroe","State":"New York","Zip Code":14618,"Facility Phone Number":5853811600,"Facility Location":"(40.595351, -73.743113)"},"geometry":{"type":"Point","coordinates":[-73.743113,40.595351]}},{"type":"Feature","properties":{"Facility ID":14998,"Name":"Home of the Good Shepherd","Type":"Adult Home","Street Address":"390 Church Street","City":"Saratoga Springs","County":"Saratoga","State":"New York","Zip Code":12866,"Facility Phone Number":5185843317,"Facility Location":"(40.595409, -73.748398)"},"geometry":{"type":"Point","coordinates":[-73.748398,40.595409]}},{"type":"Feature","properties":{"Facility ID":14951,"Name":"Elm York Home for Adults","Type":"Adult Home","Street Address":"100-30 Ditmars Boulevard","City":"East Elmhurst","County":"Queens","State":"New York","Zip Code":11369,"Facility Phone Number":7184467900,"Facility Location":"(40.596001, -73.99736)"},"geometry":{"type":"Point","coordinates":[-73.99736,40.596001]}},{"type":"Feature","properties":{"Facility ID":1245,"Name":"Pelham Parkway Nursing Care and Rehabilitation Facility LLC","Type":"Residential Health Care Facility","Street Address":"2401 Laconia Ave","City":"Bronx","County":"Bronx","State":"New York","Zip Code":10469,"Facility Phone Number":7187988600,"Facility Location":"(40.596156, -73.99677)"},"geometry":{"type":"Point","coordinates":[-73.99677,40.596156]}},{"type":"Feature","properties":{"Facility ID":150,"Name":"FASNY Firefighter's Home","Type":"Residential Health Care Facility","Street Address":"125 Harry-Howard Avenue","City":"Hudson","County":"Columbia","State":"New York","Zip Code":12534,"Facility Phone Number":5188287695,"Facility Location":"(40.596214, -74.090599)"},"geometry":{"type":"Point","coordinates":[-74.090599,40.596214]}},{"type":"Feature","properties":{"Facility ID":654,"Name":"Central Park Rehabilitation and Nursing Center","Type":"Residential Health Care Facility","Street Address":"116 Martin Luther King East","City":"Syracuse","County":"Onondaga","State":"New York","Zip Code":13205,"Facility Phone Number":3154751641,"Facility Location":"(40.596481, -73.751122)"},"geometry":{"type":"Point","coordinates":[-73.751122,40.596481]}},{"type":"Feature","properties":{"Facility ID":3910,"Name":"Eden Rehabilitation & Nursing Center","Type":"Residential Health Care Facility","Street Address":"2806 George Street","City":"Eden","County":"Erie","State":"New York","Zip Code":14057,"Facility Phone Number":7169923987,"Facility Location":"(40.596709, -73.753637)"},"geometry":{"type":"Point","coordinates":[-73.753637,40.596709]}},{"type":"Feature","properties":{"Facility ID":14650,"Name":"Orchard Grove Residences","Type":"Adult Home","Street Address":"2000 Southwestern Drive W. E.","City":"Jamestown","County":"Chautauqua","State":"New York","Zip Code":14701,"Facility Phone Number":7163381600,"Facility Location":"(40.59795, -73.744637)"},"geometry":{"type":"Point","coordinates":[-73.744637,40.59795]}},{"type":"Feature","properties":{"Facility ID":14660,"Name":"Chenango County Home Preston Manor","Type":"Adult Home","Street Address":"1150 County Road 4  RFD #2, Box 203","City":"Oxford","County":"Chenango","State":"New York","Zip Code":13830,"Facility Phone Number":6073349428,"Facility Location":"(40.598469, -73.764702)"},"geometry":{"type":"Point","coordinates":[-73.764702,40.598469]}},{"type":"Feature","properties":{"Facility ID":761,"Name":"Van Rensselaer Manor","Type":"Residential Health Care Facility","Street Address":"85 Bloomingrove Drive","City":"Troy","County":"Rensselaer","State":"New York","Zip Code":12180,"Facility Phone Number":5182832000,"Facility Location":"(40.599018, -73.751686)"},"geometry":{"type":"Point","coordinates":[-73.751686,40.599018]}},{"type":"Feature","properties":{"Facility ID":335,"Name":"Wells Nursing Home Inc","Type":"Residential Health Care Facility","Street Address":"201 W Madison Avenue","City":"Johnstown","County":"Fulton","State":"New York","Zip Code":12095,"Facility Phone Number":5187624546,"Facility Location":"(40.599171, -73.65593)"},"geometry":{"type":"Point","coordinates":[-73.65593,40.599171]}},{"type":"Feature","properties":{"Facility ID":15123,"Name":"Palisade Gardens","Type":"Adult Home","Street Address":"185 Palisade Avenue","City":"Yonkers","County":"Westchester","State":"New York","Zip Code":10703,"Facility Phone Number":9149661300,"Facility Location":"(40.599232, -73.754799)"},"geometry":{"type":"Point","coordinates":[-73.754799,40.599232]}},{"type":"Feature","properties":{"Facility ID":5515,"Name":"Peconic Bay Homehealth Services","Type":"Certified Home Health Agency","Street Address":"1 Heroes Way","City":"Riverhead","County":"Suffolk","State":"New York","Zip Code":11901,"Facility Phone Number":6315486432,"Facility Location":"(40.599549, -73.749295)"},"geometry":{"type":"Point","coordinates":[-73.749295,40.599549]}},{"type":"Feature","properties":{"Facility ID":7064,"Name":"Taconic Rehabilitation and Nursing at Ulster","Type":"Residential Health Care Facility","Street Address":"One Wingate Way","City":"Highland","County":"Ulster","State":"New York","Zip Code":12528,"Facility Phone Number":8456916800,"Facility Location":"(40.599613, -73.941666)"},"geometry":{"type":"Point","coordinates":[-73.941666,40.599613]}},{"type":"Feature","properties":{"Facility ID":3032,"Name":"Royal Care Certified Home Health Care, LLC","Type":"Certified Home Health Agency","Street Address":"30-50 Whitestone Expressway, Suite 304","City":"Flushing","County":"Queens","State":"New York","Zip Code":11354,"Facility Phone Number":7184751000,"Facility Location":"(40.60004, -73.752151)"},"geometry":{"type":"Point","coordinates":[-73.752151,40.60004]}},{"type":"Feature","properties":{"Facility ID":195,"Name":"The Baptist Home at Brookmeade","Type":"Residential Health Care Facility","Street Address":"46 Brookmeade Drive","City":"Rhinebeck","County":"Dutchess","State":"New York","Zip Code":12572,"Facility Phone Number":8458762071,"Facility Location":"(40.600983, -73.749962)"},"geometry":{"type":"Point","coordinates":[-73.749962,40.600983]}},{"type":"Feature","properties":{"Facility ID":15042,"Name":"Woodhaven Home for Adults","Type":"Adult Home","Street Address":"1350 Route 112","City":"Port Jefferson Sta.","County":"Suffolk","State":"New York","Zip Code":11776,"Facility Phone Number":6314733304,"Facility Location":"(40.601067, -73.756523)"},"geometry":{"type":"Point","coordinates":[-73.756523,40.601067]}},{"type":"Feature","properties":{"Facility ID":14936,"Name":"Heritage at The Plains at Parish Homestead","Type":"Adult Home","Street Address":"163 Heritage Circle","City":"Oneonta","County":"Otsego","State":"New York","Zip Code":13820,"Facility Phone Number":6072674013,"Facility Location":"(40.601162, -73.937602)"},"geometry":{"type":"Point","coordinates":[-73.937602,40.601162]}},{"type":"Feature","properties":{"Facility ID":1404,"Name":"Concord Nursing and Rehabilitation Center","Type":"Residential Health Care Facility","Street Address":"300 Madison Street","City":"Brooklyn","County":"Kings","State":"New York","Zip Code":11216,"Facility Phone Number":7186367500,"Facility Location":"(40.603535, -73.972633)"},"geometry":{"type":"Point","coordinates":[-73.972633,40.603535]}},{"type":"Feature","properties":{"Facility ID":521,"Name":"The Grand Rehabilitation and Nursing at Great Neck","Type":"Residential Health Care Facility","Street Address":"15 St Pauls Place","City":"Great Neck","County":"Nassau","State":"New York","Zip Code":11021,"Facility Phone Number":5164663001,"Facility Location":"(40.605303, -73.751002)"},"geometry":{"type":"Point","coordinates":[-73.751002,40.605303]}},{"type":"Feature","properties":{"Facility ID":3307,"Name":"East Neck Nursing & Rehabilitation Center","Type":"Residential Health Care Facility","Street Address":"134 Great East Neck Road","City":"West Babylon","County":"Suffolk","State":"New York","Zip Code":11704,"Facility Phone Number":6314224800,"Facility Location":"(40.606915, -74.131828)"},"geometry":{"type":"Point","coordinates":[-74.131828,40.606915]}},{"type":"Feature","properties":{"Facility ID":14911,"Name":"Horizons","Type":"Adult Home","Street Address":"3132 State Route 21 South","City":"Canandaigua","County":"Ontario","State":"New York","Zip Code":14424,"Facility Phone Number":5853963390,"Facility Location":"(40.606957, -73.987399)"},"geometry":{"type":"Point","coordinates":[-73.987399,40.606957]}},{"type":"Feature","properties":{"Facility ID":9668,"Name":"Four Seasons Nursing and Rehabilitation Certified Home Health Agency","Type":"Certified Home Health Agency","Street Address":"1535 Rockaway Parkway","City":"Brooklyn","County":"Kings","State":"New York","Zip Code":11236,"Facility Phone Number":7183075460,"Facility Location":"(40.608437, -74.122993)"},"geometry":{"type":"Point","coordinates":[-74.122993,40.608437]}},{"type":"Feature","properties":{"Facility ID":15064,"Name":"Birchwood Suites","Type":"Adult Home","Street Address":"423 Clay Pitts Road","City":"East Northport","County":"Suffolk","State":"New York","Zip Code":11731,"Facility Phone Number":6313685252,"Facility Location":"(40.609184, -73.914093)"},"geometry":{"type":"Point","coordinates":[-73.914093,40.609184]}},{"type":"Feature","properties":{"Facility ID":6171,"Name":"Putnam Ridge","Type":"Residential Health Care Facility","Street Address":"46 Mt Ebo Road North","City":"Brewster","County":"Putnam","State":"New York","Zip Code":10509,"Facility Phone Number":8452783636,"Facility Location":"(40.609352, -74.002373)"},"geometry":{"type":"Point","coordinates":[-74.002373,40.609352]}},{"type":"Feature","properties":{"Facility ID":15013,"Name":"Marchand Manor","Type":"Adult Home","Street Address":"121 Main Street, Route 10","City":"Sharon Springs","County":"Schoharie","State":"New York","Zip Code":13459,"Facility Phone Number":5182842357,"Facility Location":"(40.61515, -74.023781)"},"geometry":{"type":"Point","coordinates":[-74.023781,40.61515]}},{"type":"Feature","properties":{"Facility ID":1755,"Name":"Carmel Richmond Healthcare and Rehabilitation Center","Type":"Residential Health Care Facility","Street Address":"88 Old Town Road","City":"Staten Island","County":"Richmond","State":"New York","Zip Code":10304,"Facility Phone Number":7189795000,"Facility Location":"(40.616329, -74.024315)"},"geometry":{"type":"Point","coordinates":[-74.024315,40.616329]}},{"type":"Feature","properties":{"Facility ID":7016,"Name":"Glen Arden Inc","Type":"Residential Health Care Facility","Street Address":"214 Harriman Drive","City":"Goshen","County":"Orange","State":"New York","Zip Code":10924,"Facility Phone Number":8452917800,"Facility Location":"(40.620567, -74.076324)"},"geometry":{"type":"Point","coordinates":[-74.076324,40.620567]}},{"type":"Feature","properties":{"Facility ID":478,"Name":"Penfield Place","Type":"Residential Health Care Facility","Street Address":"1700 Penfield Rd","City":"Penfield","County":"Monroe","State":"New York","Zip Code":14526,"Facility Phone Number":5855867433,"Facility Location":"(40.622074, -73.964531)"},"geometry":{"type":"Point","coordinates":[-73.964531,40.622074]}},{"type":"Feature","properties":{"Facility ID":3608,"Name":"CareFirst / Southern Tier Hospice and Palliative Care / Southern Tier Hospice","Type":"Hospice","Street Address":"3805 Meads Creek Road","City":"Painted Post","County":"Steuben","State":"New York","Zip Code":14870,"Facility Phone Number":6079623100,"Facility Location":"(40.622318, -73.987366)"},"geometry":{"type":"Point","coordinates":[-73.987366,40.622318]}},{"type":"Feature","properties":{"Facility ID":4107,"Name":"St Johnsville Rehabilitation and Nursing Center","Type":"Residential Health Care Facility","Street Address":"7 Timmerman Avenue","City":"St Johnsville","County":"Montgomery","State":"New York","Zip Code":13452,"Facility Phone Number":5185685037,"Facility Location":"(40.622379, -74.078377)"},"geometry":{"type":"Point","coordinates":[-74.078377,40.622379]}},{"type":"Feature","properties":{"Facility ID":1775,"Name":"Essex County Nursing Service","Type":"Certified Home Health Agency","Street Address":"132 Water Street, PO Box 217","City":"Elizabethtown","County":"Essex","State":"New York","Zip Code":12932,"Facility Phone Number":5188733500,"Facility Location":"(40.625118, -74.003334)"},"geometry":{"type":"Point","coordinates":[-74.003334,40.625118]}},{"type":"Feature","properties":{"Facility ID":822,"Name":"Wesley Health Care Center Inc","Type":"Residential Health Care Facility","Street Address":"131 Lawrence Street","City":"Saratoga Springs","County":"Saratoga","State":"New York","Zip Code":12866,"Facility Phone Number":5185873600,"Facility Location":"(40.625252, -74.003588)"},"geometry":{"type":"Point","coordinates":[-74.003588,40.625252]}},{"type":"Feature","properties":{"Facility ID":1233,"Name":"Fieldston Lodge Care Center","Type":"Residential Health Care Facility","Street Address":"666 Kappock Street","City":"Bronx","County":"Bronx","State":"New York","Zip Code":10463,"Facility Phone Number":7185491203,"Facility Location":"(40.625799, -73.980342)"},"geometry":{"type":"Point","coordinates":[-73.980342,40.625799]}},{"type":"Feature","properties":{"Facility ID":953,"Name":"Luxor Nursing and Rehabilitation at Mills Pond","Type":"Residential Health Care Facility","Street Address":"273 Moriches Road","City":"St James","County":"Suffolk","State":"New York","Zip Code":11780,"Facility Phone Number":6318628990,"Facility Location":"(40.627734, -74.159046)"},"geometry":{"type":"Point","coordinates":[-74.159046,40.627734]}},{"type":"Feature","properties":{"Facility ID":1258,"Name":"Fordham Nursing and Rehabilitation Center","Type":"Residential Health Care Facility","Street Address":"2678 Kingsbridge Terrace","City":"Bronx","County":"Bronx","State":"New York","Zip Code":10463,"Facility Phone Number":7187965800,"Facility Location":"(40.628391, -73.991936)"},"geometry":{"type":"Point","coordinates":[-73.991936,40.628391]}},{"type":"Feature","properties":{"Facility ID":4285,"Name":"Hamilton Park Nursing and Rehabilitation Center","Type":"Residential Health Care Facility","Street Address":"691 92 Street","City":"Brooklyn","County":"Kings","State":"New York","Zip Code":11228,"Facility Phone Number":7185671820,"Facility Location":"(40.630586, -73.970587)"},"geometry":{"type":"Point","coordinates":[-73.970587,40.630586]}},{"type":"Feature","properties":{"Facility ID":1126,"Name":"Andrus On Hudson","Type":"Residential Health Care Facility","Street Address":"185 Old Broadway","City":"Hastings-On-Hudson","County":"Westchester","State":"New York","Zip Code":10706,"Facility Phone Number":9144783700,"Facility Location":"(40.632293, -73.707864)"},"geometry":{"type":"Point","coordinates":[-73.707864,40.632293]}},{"type":"Feature","properties":{"Facility ID":14825,"Name":"Sunrise of Glen Cove","Type":"Adult Home","Street Address":"39 Forest Avenue","City":"Glen Cove","County":"Nassau","State":"New York","Zip Code":11542,"Facility Phone Number":5166560575,"Facility Location":"(40.632489, -74.096993)"},"geometry":{"type":"Point","coordinates":[-74.096993,40.632489]}},{"type":"Feature","properties":{"Facility ID":14629,"Name":"Garden House For Adults","Type":"Adult Home","Street Address":"91 Walnut Street","City":"Binghamton","County":"Broome","State":"New York","Zip Code":13905,"Facility Phone Number":6077245763,"Facility Location":"(40.633396, -74.092171)"},"geometry":{"type":"Point","coordinates":[-74.092171,40.633396]}},{"type":"Feature","properties":{"Facility ID":14760,"Name":"East Road Adult Home","Type":"Adult Home","Street Address":"7731 East Road","City":"Lowville","County":"Lewis","State":"New York","Zip Code":13367,"Facility Phone Number":3153767072,"Facility Location":"(40.634281, -74.087616)"},"geometry":{"type":"Point","coordinates":[-74.087616,40.634281]}},{"type":"Feature","properties":{"Facility ID":15036,"Name":"The Bristal at Sayville","Type":"Adult Home","Street Address":"129 Lakeland Avenue","City":"Sayville","County":"Suffolk","State":"New York","Zip Code":11782,"Facility Phone Number":6315631160,"Facility Location":"(40.634675, -73.908324)"},"geometry":{"type":"Point","coordinates":[-73.908324,40.634675]}},{"type":"Feature","properties":{"Facility ID":14775,"Name":"Crimson Ridge Gardens","Type":"Adult Home","Street Address":"1 Treeline Drive","City":"Rochester","County":"Monroe","State":"New York","Zip Code":14612,"Facility Phone Number":5857209310,"Facility Location":"(40.634759, -74.013732)"},"geometry":{"type":"Point","coordinates":[-74.013732,40.634759]}},{"type":"Feature","properties":{"Facility ID":15133,"Name":"Woodview Court","Type":"Adult Home","Street Address":"1015 Saw Mill River Road","City":"Ardsley","County":"Westchester","State":"New York","Zip Code":10502,"Facility Phone Number":9144001103,"Facility Location":"(40.634837, -74.013714)"},"geometry":{"type":"Point","coordinates":[-74.013714,40.634837]}},{"type":"Feature","properties":{"Facility ID":14973,"Name":"New Broadview Home for Adults","Type":"Adult Home","Street Address":"70 Father Capodanno Boulevard","City":"Staten Island","County":"Richmond","State":"New York","Zip Code":10305,"Facility Phone Number":7182738900,"Facility Location":"(40.638084, -73.928993)"},"geometry":{"type":"Point","coordinates":[-73.928993,40.638084]}},{"type":"Feature","properties":{"Facility ID":1026,"Name":"Washington Center for Rehabilitation and Healthcare","Type":"Residential Health Care Facility","Street Address":"Route 40","City":"Argyle","County":"Washington","State":"New York","Zip Code":12809,"Facility Phone Number":5186388274,"Facility Location":"(40.638824, -73.926178)"},"geometry":{"type":"Point","coordinates":[-73.926178,40.638824]}},{"type":"Feature","properties":{"Facility ID":277,"Name":"Brooklyn-Queens Nursing Home","Type":"Residential Health Care Facility","Street Address":"2749 Linden Blvd","City":"Brooklyn","County":"Kings","State":"New York","Zip Code":11208,"Facility Phone Number":7182775100,"Facility Location":"(40.638924, -73.998734)"},"geometry":{"type":"Point","coordinates":[-73.998734,40.638924]}},{"type":"Feature","properties":{"Facility ID":6057,"Name":"MVHS Rehabilitation and Nursing Center","Type":"Residential Health Care Facility","Street Address":"1650 Champlin Avenue","City":"Utica","County":"Oneida","State":"New York","Zip Code":13502,"Facility Phone Number":3156248600,"Facility Location":"(40.639965, -73.957695)"},"geometry":{"type":"Point","coordinates":[-73.957695,40.639965]}},{"type":"Feature","properties":{"Facility ID":931,"Name":"Sunrise Manor Center for Nursing and Rehabilitation","Type":"Residential Health Care Facility","Street Address":"1325 Brentwood Road","City":"Bay Shore","County":"Suffolk","State":"New York","Zip Code":11706,"Facility Phone Number":6316654960,"Facility Location":"(40.640015, -74.094337)"},"geometry":{"type":"Point","coordinates":[-74.094337,40.640015]}},{"type":"Feature","properties":{"Facility ID":1381,"Name":"Cobble Hill Health Center, Inc","Type":"Residential Health Care Facility","Street Address":"380 Henry Street","City":"Brooklyn","County":"Kings","State":"New York","Zip Code":11201,"Facility Phone Number":7188556789,"Facility Location":"(40.640168, -74.095726)"},"geometry":{"type":"Point","coordinates":[-74.095726,40.640168]}},{"type":"Feature","properties":{"Facility ID":7643,"Name":"Lutheran Center at Poughkeepsie, Inc","Type":"Residential Health Care Facility","Street Address":"965 Duthcess Turnpike","City":"Poughkeepsie","County":"Dutchess","State":"New York","Zip Code":12603,"Facility Phone Number":8454869494,"Facility Location":"(40.640358, -73.64209)"},"geometry":{"type":"Point","coordinates":[-73.64209,40.640358]}},{"type":"Feature","properties":{"Facility ID":877,"Name":"Berkshire Nursing & Rehabilitation  Center","Type":"Residential Health Care Facility","Street Address":"10 Berkshire Road","City":"W Babylon","County":"Suffolk","State":"New York","Zip Code":11704,"Facility Phone Number":6315870600,"Facility Location":"(40.641064, -73.972786)"},"geometry":{"type":"Point","coordinates":[-73.972786,40.641064]}},{"type":"Feature","properties":{"Facility ID":1665,"Name":"St. Mary's Hospital for Children","Type":"Residential Health Care Facility","Street Address":"29-01 216th Street","City":"Bayside","County":"Queens","State":"New York","Zip Code":11360,"Facility Phone Number":7182818800,"Facility Location":"(40.642799, -73.899612)"},"geometry":{"type":"Point","coordinates":[-73.899612,40.642799]}},{"type":"Feature","properties":{"Facility ID":15356,"Name":"Brightview Port Jefferson","Type":"Adult Home","Street Address":"1175 Rt. 112","City":"Port Jefferson Station","County":"Suffolk","State":"New York","Zip Code":11776,"Facility Phone Number":6318025021,"Facility Location":"(40.643169, -73.900024)"},"geometry":{"type":"Point","coordinates":[-73.900024,40.643169]}},{"type":"Feature","properties":{"Facility ID":14931,"Name":"The Gardens by Morningstar","Type":"Adult Home","Street Address":"132 Ellen Street","City":"Oswego","County":"Oswego","State":"New York","Zip Code":13126,"Facility Phone Number":3153430880,"Facility Location":"(40.645325, -73.883415)"},"geometry":{"type":"Point","coordinates":[-73.883415,40.645325]}},{"type":"Feature","properties":{"Facility ID":4092,"Name":"Pathways Nursing and Rehabilitation Center","Type":"Residential Health Care Facility","Street Address":"1805 Providence Avenue","City":"Niskayuna","County":"Schenectady","State":"New York","Zip Code":12309,"Facility Phone Number":5183742212,"Facility Location":"(40.648965, -73.897988)"},"geometry":{"type":"Point","coordinates":[-73.897988,40.648965]}},{"type":"Feature","properties":{"Facility ID":14887,"Name":"McHarrie Pointe","Type":"Adult Home","Street Address":"7740 Meigs Road","City":"Baldwinsville","County":"Onondaga","State":"New York","Zip Code":13027,"Facility Phone Number":3156382521,"Facility Location":"(40.64941, -73.898132)"},"geometry":{"type":"Point","coordinates":[-73.898132,40.64941]}},{"type":"Feature","properties":{"Facility ID":7665,"Name":"Linden Center for Nursing and Rehabilitation","Type":"Residential Health Care Facility","Street Address":"2237 Linden Boulevard","City":"Brooklyn","County":"Kings","State":"New York","Zip Code":11207,"Facility Phone Number":7186497000,"Facility Location":"(40.649609, -73.967712)"},"geometry":{"type":"Point","coordinates":[-73.967712,40.649609]}},{"type":"Feature","properties":{"Facility ID":5760,"Name":"Taconic Rehabilitation and Nursing at Hopewell","Type":"Residential Health Care Facility","Street Address":"3 Summit Court","City":"Fishkill","County":"Dutchess","State":"New York","Zip Code":12524,"Facility Phone Number":8458961500,"Facility Location":"(40.649876, -73.667297)"},"geometry":{"type":"Point","coordinates":[-73.667297,40.649876]}},{"type":"Feature","properties":{"Facility ID":9269,"Name":"Shining Star Home Health Care","Type":"Certified Home Health Agency","Street Address":"5922 18th Avenue","City":"Brooklyn","County":"Kings","State":"New York","Zip Code":11204,"Facility Phone Number":7184354700,"Facility Location":"(40.651974, -73.594452)"},"geometry":{"type":"Point","coordinates":[-73.594452,40.651974]}},{"type":"Feature","properties":{"Facility ID":15002,"Name":"Willow Ridge Pointe","Type":"Adult Home","Street Address":"1 Prospect Street","City":"Mechanicville","County":"Saratoga","State":"New York","Zip Code":12118,"Facility Phone Number":5186648014,"Facility Location":"(40.652256, -73.591904)"},"geometry":{"type":"Point","coordinates":[-73.591904,40.652256]}},{"type":"Feature","properties":{"Facility ID":3293,"Name":"Eddy Memorial Geriatric Center","Type":"Residential Health Care Facility","Street Address":"2256 Burdett Avenue","City":"Troy","County":"Rensselaer","State":"New York","Zip Code":12180,"Facility Phone Number":5182749890,"Facility Location":"(40.652481, -73.953758)"},"geometry":{"type":"Point","coordinates":[-73.953758,40.652481]}},{"type":"Feature","properties":{"Facility ID":14923,"Name":"Braemar Living at Wallkill","Type":"Adult Home","Street Address":"21 Riverside Drive","City":"Middletown","County":"Orange","State":"New York","Zip Code":10941,"Facility Phone Number":9143052230,"Facility Location":"(40.652994, -73.954223)"},"geometry":{"type":"Point","coordinates":[-73.954223,40.652994]}},{"type":"Feature","properties":{"Facility ID":6462,"Name":"Medford Multicare Center for Living","Type":"Residential Health Care Facility","Street Address":"3115 Horseblock Road","City":"Medford","County":"Suffolk","State":"New York","Zip Code":11763,"Facility Phone Number":6317303000,"Facility Location":"(40.655045, -73.913261)"},"geometry":{"type":"Point","coordinates":[-73.913261,40.655045]}},{"type":"Feature","properties":{"Facility ID":633,"Name":"The Grand Rehabilitation and Nursing at Delaware Park","Type":"Residential Health Care Facility","Street Address":"1205 Delaware Avenue","City":"Buffalo","County":"Erie","State":"New York","Zip Code":14209,"Facility Phone Number":7168853838,"Facility Location":"(40.655528, -73.679438)"},"geometry":{"type":"Point","coordinates":[-73.679438,40.655528]}},{"type":"Feature","properties":{"Facility ID":1001,"Name":"New Paltz Center for Rehabilitation and Nursing","Type":"Residential Health Care Facility","Street Address":"1 Jansen Road, P.O. Box 909","City":"New Paltz","County":"Ulster","State":"New York","Zip Code":12561,"Facility Phone Number":8452550830,"Facility Location":"(40.656416, -73.683942)"},"geometry":{"type":"Point","coordinates":[-73.683942,40.656416]}},{"type":"Feature","properties":{"Facility ID":3973,"Name":"High Peaks Hospice and Palliative Care, Inc.","Type":"Hospice","Street Address":"309 County Rte 47, Suite 7","City":"Saranac Lake","County":"Franklin","State":"New York","Zip Code":12983,"Facility Phone Number":5188919631,"Facility Location":"(40.658021, -73.631837)"},"geometry":{"type":"Point","coordinates":[-73.631837,40.658021]}},{"type":"Feature","properties":{"Facility ID":14616,"Name":"The W Assisted Living at Riverdale Home for Adults","Type":"Adult Home","Street Address":"6355 Broadway","City":"Bronx","County":"Bronx","State":"New York","Zip Code":10471,"Facility Phone Number":7185493300,"Facility Location":"(40.659435, -73.934036)"},"geometry":{"type":"Point","coordinates":[-73.934036,40.659435]}},{"type":"Feature","properties":{"Facility ID":1249,"Name":"Triboro Center for Rehabilitation and Nursing","Type":"Residential Health Care Facility","Street Address":"1160 Teller Ave","City":"Bronx","County":"Bronx","State":"New York","Zip Code":10456,"Facility Phone Number":7182931500,"Facility Location":"(40.660229, -73.939819)"},"geometry":{"type":"Point","coordinates":[-73.939819,40.660229]}},{"type":"Feature","properties":{"Facility ID":1682,"Name":"Forest View Center for Rehabilitation & Nursing","Type":"Residential Health Care Facility","Street Address":"71-20 110th Street","City":"Forest Hills","County":"Queens","State":"New York","Zip Code":11375,"Facility Phone Number":7187933200,"Facility Location":"(40.663113, -73.880653)"},"geometry":{"type":"Point","coordinates":[-73.880653,40.663113]}},{"type":"Feature","properties":{"Facility ID":3902,"Name":"Elderwood at Hornell","Type":"Residential Health Care Facility","Street Address":"One Bethesda Drive","City":"N Hornell","County":"Steuben","State":"New York","Zip Code":14843,"Facility Phone Number":6073246900,"Facility Location":"(40.663701, -73.659007)"},"geometry":{"type":"Point","coordinates":[-73.659007,40.663701]}},{"type":"Feature","properties":{"Facility ID":1852,"Name":"Lawrence Home Care of Westchester","Type":"Certified Home Health Agency","Street Address":"670 White Plains Road","City":"Scarsdale","County":"Westchester","State":"New York","Zip Code":10583,"Facility Phone Number":9147876158,"Facility Location":"(40.663876, -73.650276)"},"geometry":{"type":"Point","coordinates":[-73.650276,40.663876]}},{"type":"Feature","properties":{"Facility ID":364,"Name":"Alpine Rehabilitation and Nursing Center","Type":"Residential Health Care Facility","Street Address":"755 East Monroe Street","City":"Little Falls","County":"Herkimer","State":"New York","Zip Code":13365,"Facility Phone Number":3158231001,"Facility Location":"(40.664047, -73.651192)"},"geometry":{"type":"Point","coordinates":[-73.651192,40.664047]}},{"type":"Feature","properties":{"Facility ID":4037,"Name":"Bushwick Center for Rehabilitation and Health Care","Type":"Residential Health Care Facility","Street Address":"50 Sheffield Avenue","City":"Brooklyn","County":"Kings","State":"New York","Zip Code":11207,"Facility Phone Number":7183452273,"Facility Location":"(40.667854, -73.438622)"},"geometry":{"type":"Point","coordinates":[-73.438622,40.667854]}},{"type":"Feature","properties":{"Facility ID":14694,"Name":"Heathwood Assisted Living at Williamsville","Type":"Adult Home","Street Address":"815 Hopkins Road","City":"Williamsville","County":"Erie","State":"New York","Zip Code":14221,"Facility Phone Number":7166880111,"Facility Location":"(40.669674, -73.862778)"},"geometry":{"type":"Point","coordinates":[-73.862778,40.669674]}},{"type":"Feature","properties":{"Facility ID":5625,"Name":"Tender Loving Care, an Amedisys Company","Type":"Certified Home Health Agency","Street Address":"100 Garden City Plaza, Suite 100","City":"Garden City","County":"Nassau","State":"New York","Zip Code":11530,"Facility Phone Number":5169353737,"Facility Location":"(40.670152, -73.674602)"},"geometry":{"type":"Point","coordinates":[-73.674602,40.670152]}},{"type":"Feature","properties":{"Facility ID":14726,"Name":"Leroy Manor","Type":"Adult Home","Street Address":"8678 Lake Street Road","City":"Leroy","County":"Genesee","State":"New York","Zip Code":14482,"Facility Phone Number":5857686291,"Facility Location":"(40.671021, -73.862457)"},"geometry":{"type":"Point","coordinates":[-73.862457,40.671021]}},{"type":"Feature","properties":{"Facility ID":1578,"Name":"New East Side Nursing Home","Type":"Residential Health Care Facility","Street Address":"25 Bialystoker Place","City":"New York","County":"New York","State":"New York","Zip Code":10002,"Facility Phone Number":2126738500,"Facility Location":"(40.674923, -73.945709)"},"geometry":{"type":"Point","coordinates":[-73.945709,40.674923]}},{"type":"Feature","properties":{"Facility ID":1373,"Name":"Seagate Rehabilitation and Nursing Center","Type":"Residential Health Care Facility","Street Address":"3015 W 29 St","City":"Brooklyn","County":"Kings","State":"New York","Zip Code":11224,"Facility Phone Number":7182665700,"Facility Location":"(40.675587, -73.959229)"},"geometry":{"type":"Point","coordinates":[-73.959229,40.675587]}},{"type":"Feature","properties":{"Facility ID":1700,"Name":"Woodcrest Rehabilitation & Residential Health Care Center., LLC","Type":"Residential Health Care Facility","Street Address":"119-09 26th Avenue","City":"College Point","County":"Queens","State":"New York","Zip Code":11354,"Facility Phone Number":7187626100,"Facility Location":"(40.675779, -73.867697)"},"geometry":{"type":"Point","coordinates":[-73.867697,40.675779]}},{"type":"Feature","properties":{"Facility ID":778,"Name":"Pine Valley Center for Rehabilitation and Nursing","Type":"Residential Health Care Facility","Street Address":"661 N Main St","City":"Spring Valley","County":"Rockland","State":"New York","Zip Code":10977,"Facility Phone Number":8453560567,"Facility Location":"(40.676289, -73.898109)"},"geometry":{"type":"Point","coordinates":[-73.898109,40.676289]}},{"type":"Feature","properties":{"Facility ID":1796,"Name":"HHC Health and Home Care","Type":"Certified Home Health Agency","Street Address":"50 Water Street, 6th Floor","City":"New York","County":"New York","State":"New York","Zip Code":10004,"Facility Phone Number":6464586100,"Facility Location":"(40.678387, -73.92572)"},"geometry":{"type":"Point","coordinates":[-73.92572,40.678387]}},{"type":"Feature","properties":{"Facility ID":14683,"Name":"Glenwell","Type":"Adult Home","Street Address":"2248 Old Union Road","City":"Cheektowaga","County":"Erie","State":"New York","Zip Code":14227,"Facility Phone Number":7166087000,"Facility Location":"(40.6787, -73.4247)"},"geometry":{"type":"Point","coordinates":[-73.4247,40.6787]}},{"type":"Feature","properties":{"Facility ID":15149,"Name":"Clinton Crest Manor","Type":"Adult Home","Street Address":"411 Clinton Street","City":"Penn Yan","County":"Yates","State":"New York","Zip Code":14527,"Facility Phone Number":3155368800,"Facility Location":"(40.681789, -73.685814)"},"geometry":{"type":"Point","coordinates":[-73.685814,40.681789]}},{"type":"Feature","properties":{"Facility ID":15047,"Name":"The Arbors at Islandia East","Type":"Adult Home","Street Address":"1515A Veterans Memorial Highway","City":"Islandia","County":"Suffolk","State":"New York","Zip Code":11749,"Facility Phone Number":6312323131,"Facility Location":"(40.684139, -73.422721)"},"geometry":{"type":"Point","coordinates":[-73.422721,40.684139]}},{"type":"Feature","properties":{"Facility ID":14941,"Name":"Belle Harbor Manor","Type":"Adult Home","Street Address":"209 Beach 125th Street","City":"Belle Harbor","County":"Queens","State":"New York","Zip Code":11694,"Facility Phone Number":7189456600,"Facility Location":"(40.684699, -73.316212)"},"geometry":{"type":"Point","coordinates":[-73.316212,40.684699]}},{"type":"Feature","properties":{"Facility ID":14989,"Name":"The New Golden Acres SP LLC","Type":"Adult Home","Street Address":"11 Prospect Street","City":"Spring Valley","County":"Rockland","State":"New York","Zip Code":10977,"Facility Phone Number":8453562440,"Facility Location":"(40.684998, -73.973228)"},"geometry":{"type":"Point","coordinates":[-73.973228,40.684998]}},{"type":"Feature","properties":{"Facility ID":15130,"Name":"Sunrise of Crestwood","Type":"Adult Home","Street Address":"65 Crisfield Street","City":"Yonkers","County":"Westchester","State":"New York","Zip Code":10710,"Facility Phone Number":9143953500,"Facility Location":"(40.68515, -73.946304)"},"geometry":{"type":"Point","coordinates":[-73.946304,40.68515]}},{"type":"Feature","properties":{"Facility ID":4494,"Name":"Crouse Community Center Inc","Type":"Residential Health Care Facility","Street Address":"101 South Street","City":"Morrisville","County":"Madison","State":"New York","Zip Code":13408,"Facility Phone Number":3156849595,"Facility Location":"(40.685375, -73.971214)"},"geometry":{"type":"Point","coordinates":[-73.971214,40.685375]}},{"type":"Feature","properties":{"Facility ID":4552,"Name":"Luxor Nursing and Rehabilitation at Sayville","Type":"Residential Health Care Facility","Street Address":"300 Broadway Avenue","City":"Sayville","County":"Suffolk","State":"New York","Zip Code":11782,"Facility Phone Number":6315679300,"Facility Location":"(40.686268, -73.987091)"},"geometry":{"type":"Point","coordinates":[-73.987091,40.686268]}},{"type":"Feature","properties":{"Facility ID":560,"Name":"Central Island Healthcare","Type":"Residential Health Care Facility","Street Address":"825 Old Country Rd","City":"Plainview","County":"Nassau","State":"New York","Zip Code":11803,"Facility Phone Number":5164330600,"Facility Location":"(40.686711, -73.341398)"},"geometry":{"type":"Point","coordinates":[-73.341398,40.686711]}},{"type":"Feature","properties":{"Facility ID":593,"Name":"The Grand Rehabilitation and Nursing at Rome","Type":"Residential Health Care Facility","Street Address":"801 North James Street","City":"Rome","County":"Oneida","State":"New York","Zip Code":13440,"Facility Phone Number":3153370550,"Facility Location":"(40.688328, -73.997482)"},"geometry":{"type":"Point","coordinates":[-73.997482,40.688328]}},{"type":"Feature","properties":{"Facility ID":15097,"Name":"The New Village View SP LLC","Type":"Adult Home","Street Address":"1 Grove Street","City":"Highland","County":"Ulster","State":"New York","Zip Code":12528,"Facility Phone Number":8456918399,"Facility Location":"(40.688433, -73.997774)"},"geometry":{"type":"Point","coordinates":[-73.997774,40.688433]}},{"type":"Feature","properties":{"Facility ID":5989,"Name":"Family Care Certified Services, a Division of Tri-Borough Certified Health Systems of NY","Type":"Long Term Home Health Care Program","Street Address":"50 Clinton Street, Suite 601","City":"Hempstead","County":"Nassau","State":"New York","Zip Code":11550,"Facility Phone Number":5169327799,"Facility Location":"(40.68926, -73.923587)"},"geometry":{"type":"Point","coordinates":[-73.923587,40.68926]}},{"type":"Feature","properties":{"Facility ID":14832,"Name":"Orchard Estate of Woodbury","Type":"Adult Home","Street Address":"900 Woodbury Road","City":"Woodbury","County":"Nassau","State":"New York","Zip Code":11797,"Facility Phone Number":5164078096,"Facility Location":"(40.690781, -73.345139)"},"geometry":{"type":"Point","coordinates":[-73.345139,40.690781]}},{"type":"Feature","properties":{"Facility ID":15018,"Name":"Maryville Home For Adults","Type":"Adult Home","Street Address":"7678 County Road 70","City":"Avoca","County":"Steuben","State":"New York","Zip Code":14809,"Facility Phone Number":6075662368,"Facility Location":"(40.690891, -73.292473)"},"geometry":{"type":"Point","coordinates":[-73.292473,40.690891]}},{"type":"Feature","properties":{"Facility ID":14742,"Name":"Oceanview Manor Home for Adults","Type":"Adult Home","Street Address":"3010 West 33rd Street","City":"Brooklyn","County":"Kings","State":"New York","Zip Code":11224,"Facility Phone Number":7189961500,"Facility Location":"(40.691135, -73.540489)"},"geometry":{"type":"Point","coordinates":[-73.540489,40.691135]}},{"type":"Feature","properties":{"Facility ID":1226,"Name":"Gold Crest Care Center","Type":"Residential Health Care Facility","Street Address":"2316 Bruner Avenue","City":"Bronx","County":"Bronx","State":"New York","Zip Code":10469,"Facility Phone Number":7188826400,"Facility Location":"(40.692551, -73.769135)"},"geometry":{"type":"Point","coordinates":[-73.769135,40.692551]}},{"type":"Feature","properties":{"Facility ID":14763,"Name":"Hamilton Manor Home for Adults","Type":"Adult Home","Street Address":"8196 Green Road","City":"Hubbardsville","County":"Madison","State":"New York","Zip Code":13355,"Facility Phone Number":3156914051,"Facility Location":"(40.694958, -73.978012)"},"geometry":{"type":"Point","coordinates":[-73.978012,40.694958]}},{"type":"Feature","properties":{"Facility ID":735,"Name":"St Luke Residential Health Care Facility Inc","Type":"Residential Health Care Facility","Street Address":"299 East River Road","City":"Oswego","County":"Oswego","State":"New York","Zip Code":13126,"Facility Phone Number":3153423166,"Facility Location":"(40.696934, -73.927689)"},"geometry":{"type":"Point","coordinates":[-73.927689,40.696934]}},{"type":"Feature","properties":{"Facility ID":91,"Name":"Auburn Rehabilitation & Nursing Center","Type":"Residential Health Care Facility","Street Address":"85 Thornton Avenue","City":"Auburn","County":"Cayuga","State":"New York","Zip Code":13021,"Facility Phone Number":3152537351,"Facility Location":"(40.697464, -73.585617)"},"geometry":{"type":"Point","coordinates":[-73.585617,40.697464]}},{"type":"Feature","properties":{"Facility ID":3242,"Name":"James G. Johnston Memorial Nursing Home","Type":"Residential Health Care Facility","Street Address":"286 Deyo Hill Road","City":"Johnson City","County":"Broome","State":"New York","Zip Code":13790,"Facility Phone Number":6077987818,"Facility Location":"(40.697664, -73.320701)"},"geometry":{"type":"Point","coordinates":[-73.320701,40.697664]}},{"type":"Feature","properties":{"Facility ID":1398,"Name":"Sheepshead Nursing & Rehabilitation Center","Type":"Residential Health Care Facility","Street Address":"2840 Knapp St","City":"Brooklyn","County":"Kings","State":"New York","Zip Code":11235,"Facility Phone Number":7186465700,"Facility Location":"(40.697823, -73.615936)"},"geometry":{"type":"Point","coordinates":[-73.615936,40.697823]}},{"type":"Feature","properties":{"Facility ID":14984,"Name":"Evergreen Court Home for Adults SP, LLC","Type":"Adult Home","Street Address":"65 Lafayette Street","City":"Spring Valley","County":"Rockland","State":"New York","Zip Code":10977,"Facility Phone Number":8453567700,"Facility Location":"(40.700279, -73.816765)"},"geometry":{"type":"Point","coordinates":[-73.816765,40.700279]}},{"type":"Feature","properties":{"Facility ID":17,"Name":"St. Peter's Nursing And Rehabilitation Center","Type":"Residential Health Care Facility","Street Address":"301 Hackett Blvd","City":"Albany","County":"Albany","State":"New York","Zip Code":12208,"Facility Phone Number":5185257600,"Facility Location":"(40.700287, -73.958183)"},"geometry":{"type":"Point","coordinates":[-73.958183,40.700287]}},{"type":"Feature","properties":{"Facility ID":6009,"Name":"Meadowbrook Care Center, Inc","Type":"Residential Health Care Facility","Street Address":"320 West Merrick Road","City":"Freeport","County":"Nassau","State":"New York","Zip Code":11520,"Facility Phone Number":5163778200,"Facility Location":"(40.704697, -73.677116)"},"geometry":{"type":"Point","coordinates":[-73.677116,40.704697]}},{"type":"Feature","properties":{"Facility ID":14633,"Name":"Castle Gardens Keepsake Village","Type":"Adult Home","Street Address":"1715 Castle Gardens Road","City":"Vestal","County":"Broome","State":"New York","Zip Code":13850,"Facility Phone Number":6077485700,"Facility Location":"(40.705803, -73.736023)"},"geometry":{"type":"Point","coordinates":[-73.736023,40.705803]}},{"type":"Feature","properties":{"Facility ID":1069,"Name":"Westchester Center for Rehabilitation & Nursing","Type":"Residential Health Care Facility","Street Address":"10 Claremont Ave","City":"Mount Vernon","County":"Westchester","State":"New York","Zip Code":10550,"Facility Phone Number":9146991600,"Facility Location":"(40.706181, -73.623581)"},"geometry":{"type":"Point","coordinates":[-73.623581,40.706181]}},{"type":"Feature","properties":{"Facility ID":6518,"Name":"Peconic Landing at Southold","Type":"Residential Health Care Facility","Street Address":"1500 Brecknock Road","City":"Greenport","County":"Suffolk","State":"New York","Zip Code":11944,"Facility Phone Number":6314773800,"Facility Location":"(40.706333, -74.012939)"},"geometry":{"type":"Point","coordinates":[-74.012939,40.706333]}},{"type":"Feature","properties":{"Facility ID":9546,"Name":"Wartburg Home Care","Type":"Certified Home Health Agency","Street Address":"1 Wartburg Place, Hauselt Building, 1st floor","City":"Mount Vernon","County":"Westchester","State":"New York","Zip Code":10552,"Facility Phone Number":9145135860,"Facility Location":"(40.706352, -73.343933)"},"geometry":{"type":"Point","coordinates":[-73.343933,40.706352]}},{"type":"Feature","properties":{"Facility ID":15106,"Name":"The Cambridge","Type":"Adult Home","Street Address":"4 West Main Street","City":"Cambridge","County":"Washington","State":"New York","Zip Code":12816,"Facility Phone Number":5186773460,"Facility Location":"(40.706882, -73.811638)"},"geometry":{"type":"Point","coordinates":[-73.811638,40.706882]}},{"type":"Feature","properties":{"Facility ID":1391,"Name":"Oxford Nursing Home","Type":"Residential Health Care Facility","Street Address":"144 So Oxford St","City":"Brooklyn","County":"Kings","State":"New York","Zip Code":11217,"Facility Phone Number":7186380360,"Facility Location":"(40.708217, -73.618384)"},"geometry":{"type":"Point","coordinates":[-73.618384,40.708217]}},{"type":"Feature","properties":{"Facility ID":1585,"Name":"Fort Tryon Center for Rehabilitation and Nursing","Type":"Residential Health Care Facility","Street Address":"801 W 190th St","City":"New York","County":"New York","State":"New York","Zip Code":10040,"Facility Phone Number":2125436400,"Facility Location":"(40.708419, -73.683483)"},"geometry":{"type":"Point","coordinates":[-73.683483,40.708419]}},{"type":"Feature","properties":{"Facility ID":14978,"Name":"St. Joseph's Assisted Living","Type":"Adult Home","Street Address":"125 Sisters Servants Lane P.O. Box 8","City":"Sloatsburg","County":"Rockland","State":"New York","Zip Code":10974,"Facility Phone Number":8457532555,"Facility Location":"(40.708519, -73.785828)"},"geometry":{"type":"Point","coordinates":[-73.785828,40.708519]}},{"type":"Feature","properties":{"Facility ID":696,"Name":"Sapphire Nursing at Meadow Hill","Type":"Residential Health Care Facility","Street Address":"172 Meadow Hill Road","City":"Newburgh","County":"Orange","State":"New York","Zip Code":12550,"Facility Phone Number":8455641700,"Facility Location":"(40.709214, -73.831034)"},"geometry":{"type":"Point","coordinates":[-73.831034,40.709214]}},{"type":"Feature","properties":{"Facility ID":191,"Name":"Sapphire Nursing at Wappingers","Type":"Residential Health Care Facility","Street Address":"37 Mesier Avenue","City":"Wappingers Falls","County":"Dutchess","State":"New York","Zip Code":12590,"Facility Phone Number":8452973793,"Facility Location":"(40.709332, -73.602242)"},"geometry":{"type":"Point","coordinates":[-73.602242,40.709332]}},{"type":"Feature","properties":{"Facility ID":1106,"Name":"Sans Souci Rehabilitation and Nursing Center","Type":"Residential Health Care Facility","Street Address":"115 Park Avenue","City":"Yonkers","County":"Westchester","State":"New York","Zip Code":10703,"Facility Phone Number":9144239800,"Facility Location":"(40.712078, -73.764412)"},"geometry":{"type":"Point","coordinates":[-73.764412,40.712078]}},{"type":"Feature","properties":{"Facility ID":4406,"Name":"Hospice Care In Westchester and Putnam, Inc","Type":"Hospice","Street Address":"540 White Plains Road, Suite 300","City":"Tarrytown","County":"Westchester","State":"New York","Zip Code":10591,"Facility Phone Number":9146667616,"Facility Location":"(40.712891, -73.987694)"},"geometry":{"type":"Point","coordinates":[-73.987694,40.712891]}},{"type":"Feature","properties":{"Facility ID":1697,"Name":"New Glen Oaks Nursing Home, Inc","Type":"Residential Health Care Facility","Street Address":"260-01 79th Avenue","City":"Glen Oaks","County":"Queens","State":"New York","Zip Code":11004,"Facility Phone Number":7183430770,"Facility Location":"(40.713039, -73.963806)"},"geometry":{"type":"Point","coordinates":[-73.963806,40.713039]}},{"type":"Feature","properties":{"Facility ID":4324,"Name":"Centers Home Health Care of Otsego","Type":"Long Term Home Health Care Program","Street Address":"128 Phoenix Mills Cross Road","City":"Cooperstown","County":"Otsego","State":"New York","Zip Code":13326,"Facility Phone Number":6075442667,"Facility Location":"(40.713646, -73.780113)"},"geometry":{"type":"Point","coordinates":[-73.780113,40.713646]}},{"type":"Feature","properties":{"Facility ID":4142,"Name":"ArchCare at Home","Type":"Long Term Home Health Care Program","Street Address":"115 East Stevens Avenue, Suites 104 and 105","City":"Valhalla","County":"Westchester","State":"New York","Zip Code":10595,"Facility Phone Number":9149411710,"Facility Location":"(40.714149, -73.801613)"},"geometry":{"type":"Point","coordinates":[-73.801613,40.714149]}},{"type":"Feature","properties":{"Facility ID":5628,"Name":"Visiting Nurse Service and Hospice of Suffolk, Inc.","Type":"Certified Home Health Agency","Street Address":"505 Main Street","City":"Northport","County":"Suffolk","State":"New York","Zip Code":11768,"Facility Phone Number":6312617200,"Facility Location":"(40.71431, -73.801186)"},"geometry":{"type":"Point","coordinates":[-73.801186,40.71431]}},{"type":"Feature","properties":{"Facility ID":14852,"Name":"The 80th Street Residence","Type":"Adult Home","Street Address":"430 East 80th Street","City":"New York","County":"New York","State":"New York","Zip Code":10075,"Facility Phone Number":2127178888,"Facility Location":"(40.715366, -73.60099)"},"geometry":{"type":"Point","coordinates":[-73.60099,40.715366]}},{"type":"Feature","properties":{"Facility ID":9491,"Name":"Health Services of Northern New York, Inc.","Type":"Long Term Home Health Care Program","Street Address":"56 Market Street","City":"Potsdam","County":"Saint Lawrence","State":"New York","Zip Code":13676,"Facility Phone Number":3152654065,"Facility Location":"(40.715927, -73.770912)"},"geometry":{"type":"Point","coordinates":[-73.770912,40.715927]}},{"type":"Feature","properties":{"Facility ID":14930,"Name":"St. Francis Commons","Type":"Adult Home","Street Address":"12 Burkle Street","City":"Oswego","County":"Oswego","State":"New York","Zip Code":13126,"Facility Phone Number":3153260870,"Facility Location":"(40.715988, -73.982857)"},"geometry":{"type":"Point","coordinates":[-73.982857,40.715988]}},{"type":"Feature","properties":{"Facility ID":14921,"Name":"Promenade at Middletown","Type":"Adult Home","Street Address":"70 Fulton Street","City":"Middletown","County":"Orange","State":"New York","Zip Code":10940,"Facility Phone Number":8453411888,"Facility Location":"(40.716981, -73.575488)"},"geometry":{"type":"Point","coordinates":[-73.575488,40.716981]}},{"type":"Feature","properties":{"Facility ID":15058,"Name":"Atria Huntington","Type":"Adult Home","Street Address":"165 Beverly Road","City":"Huntington","County":"Suffolk","State":"New York","Zip Code":11746,"Facility Phone Number":6315493533,"Facility Location":"(40.721088, -73.577988)"},"geometry":{"type":"Point","coordinates":[-73.577988,40.721088]}},{"type":"Feature","properties":{"Facility ID":1008,"Name":"Warren Center for Rehabilitation and Nursing","Type":"Residential Health Care Facility","Street Address":"42 Gurney Lane","City":"Queensbury","County":"Warren","State":"New York","Zip Code":12804,"Facility Phone Number":5187616540,"Facility Location":"(40.721531, -73.854881)"},"geometry":{"type":"Point","coordinates":[-73.854881,40.721531]}},{"type":"Feature","properties":{"Facility ID":14667,"Name":"Walden Place","Type":"Adult Home","Street Address":"839 Bennie Rd.","City":"Cortland","County":"Cortland","State":"New York","Zip Code":13045,"Facility Phone Number":6077568101,"Facility Location":"(40.721714, -73.841331)"},"geometry":{"type":"Point","coordinates":[-73.841331,40.721714]}},{"type":"Feature","properties":{"Facility ID":1669,"Name":"Margaret Tietz Nursing and Rehabilitation Center","Type":"Residential Health Care Facility","Street Address":"164-11 Chapin Parkway","City":"Jamaica","County":"Queens","State":"New York","Zip Code":11432,"Facility Phone Number":7182987800,"Facility Location":"(40.722591, -73.804779)"},"geometry":{"type":"Point","coordinates":[-73.804779,40.722591]}},{"type":"Feature","properties":{"Facility ID":1866,"Name":"UR Medicine Home Care","Type":"Certified Home Health Agency","Street Address":"2180 Empire Boulevard","City":"Webster","County":"Monroe","State":"New York","Zip Code":14580,"Facility Phone Number":5857872233,"Facility Location":"(40.724815, -73.838074)"},"geometry":{"type":"Point","coordinates":[-73.838074,40.724815]}},{"type":"Feature","properties":{"Facility ID":1714,"Name":"Hillside Manor Rehab & Extended Care Center","Type":"Residential Health Care Facility","Street Address":"182-15 Hillside Avenue","City":"Jamaica Estates","County":"Queens","State":"New York","Zip Code":11432,"Facility Phone Number":7182918200,"Facility Location":"(40.725147, -73.753143)"},"geometry":{"type":"Point","coordinates":[-73.753143,40.725147]}},{"type":"Feature","properties":{"Facility ID":6334,"Name":"Maria Regina Residence Inc","Type":"Residential Health Care Facility","Street Address":"1725 Brentwood Rd - Bldg 1","City":"Brentwood","County":"Suffolk","State":"New York","Zip Code":11717,"Facility Phone Number":6312734500,"Facility Location":"(40.725567, -73.079498)"},"geometry":{"type":"Point","coordinates":[-73.079498,40.725567]}},{"type":"Feature","properties":{"Facility ID":4545,"Name":"Livingston County Hospice","Type":"Hospice","Street Address":"2 Murray Hill Drive","City":"Mount Morris","County":"Livingston","State":"New York","Zip Code":14510,"Facility Phone Number":5852437290,"Facility Location":"(40.725994, -73.428329)"},"geometry":{"type":"Point","coordinates":[-73.428329,40.725994]}},{"type":"Feature","properties":{"Facility ID":15090,"Name":"Bridges Cornell Heights - The Tudor","Type":"Adult Home","Street Address":"407 Wyckoff Avenue","City":"Ithaca","County":"Tompkins","State":"New York","Zip Code":14850,"Facility Phone Number":6072575777,"Facility Location":"(40.725994, -73.428329)"},"geometry":{"type":"Point","coordinates":[-73.428329,40.725994]}},{"type":"Feature","properties":{"Facility ID":15088,"Name":"Brookdale Ithaca Memory Care","Type":"Adult Home","Street Address":"101 Bundy Road","City":"Ithaca","County":"Tompkins","State":"New York","Zip Code":14850,"Facility Phone Number":6072565094,"Facility Location":"(40.72633, -73.890694)"},"geometry":{"type":"Point","coordinates":[-73.890694,40.72633]}},{"type":"Feature","properties":{"Facility ID":14816,"Name":"The Arbors at Westbury","Type":"Adult Home","Street Address":"45 Jericho Turnpike","City":"Jericho","County":"Nassau","State":"New York","Zip Code":11753,"Facility Phone Number":5163336400,"Facility Location":"(40.726879, -73.871681)"},"geometry":{"type":"Point","coordinates":[-73.871681,40.726879]}},{"type":"Feature","properties":{"Facility ID":3395,"Name":"Parker Jewish Institute for Health Care & Rehabilitation","Type":"Long Term Home Health Care Program","Street Address":"271-11 76th Avenue","City":"New Hyde Park","County":"Nassau","State":"New York","Zip Code":11040,"Facility Phone Number":5165861500,"Facility Location":"(40.726996, -73.871012)"},"geometry":{"type":"Point","coordinates":[-73.871012,40.726996]}},{"type":"Feature","properties":{"Facility ID":14729,"Name":"Home Sweet Home on the Hudson","Type":"Adult Home","Street Address":"38 Prospect Avenue","City":"Catskill","County":"Greene","State":"New York","Zip Code":12414,"Facility Phone Number":5189435701,"Facility Location":"(40.728416, -73.448219)"},"geometry":{"type":"Point","coordinates":[-73.448219,40.728416]}},{"type":"Feature","properties":{"Facility ID":27,"Name":"Delmar Center for Rehabilitation and Nursing","Type":"Residential Health Care Facility","Street Address":"125 Rockefeller Road","City":"Delmar","County":"Albany","State":"New York","Zip Code":12054,"Facility Phone Number":5186211200,"Facility Location":"(40.728577, -74.004524)"},"geometry":{"type":"Point","coordinates":[-74.004524,40.728577]}},{"type":"Feature","properties":{"Facility ID":3619,"Name":"Sullivan County Public Health Services","Type":"Long Term Home Health Care Program","Street Address":"50 Community Lane","City":"Liberty","County":"Sullivan","State":"New York","Zip Code":12754,"Facility Phone Number":8452920100,"Facility Location":"(40.729022, -73.531806)"},"geometry":{"type":"Point","coordinates":[-73.531806,40.729022]}},{"type":"Feature","properties":{"Facility ID":15024,"Name":"Pleasant Gardens Home for Adults","Type":"Adult Home","Street Address":"396 Middle Road","City":"Bayport","County":"Suffolk","State":"New York","Zip Code":11705,"Facility Phone Number":6314721047,"Facility Location":"(40.730397, -73.213312)"},"geometry":{"type":"Point","coordinates":[-73.213312,40.730397]}},{"type":"Feature","properties":{"Facility ID":784,"Name":"Northern Manor Geriatric Center Inc","Type":"Residential Health Care Facility","Street Address":"199 N Middletown Road","City":"Nanuet","County":"Rockland","State":"New York","Zip Code":10954,"Facility Phone Number":8456233904,"Facility Location":"(40.731827, -73.098094)"},"geometry":{"type":"Point","coordinates":[-73.098094,40.731827]}},{"type":"Feature","properties":{"Facility ID":1752,"Name":"New Vanderbilt Rehabilitation and Care Center, Inc","Type":"Residential Health Care Facility","Street Address":"135 Vanderbilt Ave","City":"Staten Island","County":"Richmond","State":"New York","Zip Code":10304,"Facility Phone Number":7184470701,"Facility Location":"(40.73431, -73.61145)"},"geometry":{"type":"Point","coordinates":[-73.61145,40.73431]}},{"type":"Feature","properties":{"Facility ID":14815,"Name":"Atria Tanglewood","Type":"Adult Home","Street Address":"125 Ocean Avenue","City":"Lynbrook","County":"Nassau","State":"New York","Zip Code":11563,"Facility Phone Number":5165963400,"Facility Location":"(40.734638, -73.174622)"},"geometry":{"type":"Point","coordinates":[-73.174622,40.734638]}},{"type":"Feature","properties":{"Facility ID":81,"Name":"Salamanca Rehabilitation & Nursing Center","Type":"Residential Health Care Facility","Street Address":"451 Broad Street","City":"Salamanca","County":"Cattaraugus","State":"New York","Zip Code":14779,"Facility Phone Number":7169451800,"Facility Location":"(40.735472, -73.063662)"},"geometry":{"type":"Point","coordinates":[-73.063662,40.735472]}},{"type":"Feature","properties":{"Facility ID":14601,"Name":"Loudonville Assisted Living Residence","Type":"Adult Home","Street Address":"298 Albany Shaker Road","City":"Loudonville","County":"Albany","State":"New York","Zip Code":12211,"Facility Phone Number":5184634398,"Facility Location":"(40.73819, -73.643799)"},"geometry":{"type":"Point","coordinates":[-73.643799,40.73819]}},{"type":"Feature","properties":{"Facility ID":14833,"Name":"Village Green A Carlisle Assisted Living Community","Type":"Adult Home","Street Address":"90 Schoolhouse Road","City":"Levittown","County":"Nassau","State":"New York","Zip Code":11756,"Facility Phone Number":5162712500,"Facility Location":"(40.73819, -73.643799)"},"geometry":{"type":"Point","coordinates":[-73.643799,40.73819]}},{"type":"Feature","properties":{"Facility ID":7513,"Name":"Comprehensive Community Hospice of Parker Jewish Institute","Type":"Hospice","Street Address":"271-11 76th Avenue","City":"New Hyde Park","County":"Nassau","State":"New York","Zip Code":11040,"Facility Phone Number":5165861575,"Facility Location":"(40.738472, -73.851472)"},"geometry":{"type":"Point","coordinates":[-73.851472,40.738472]}},{"type":"Feature","properties":{"Facility ID":1144,"Name":"Waterview Hills Rehabilitation and Nursing Center","Type":"Residential Health Care Facility","Street Address":"537 Route 22, P.O. Box 257","City":"Purdys","County":"Westchester","State":"New York","Zip Code":10578,"Facility Phone Number":9142773691,"Facility Location":"(40.738827, -73.849312)"},"geometry":{"type":"Point","coordinates":[-73.849312,40.738827]}},{"type":"Feature","properties":{"Facility ID":14687,"Name":"Eden Heights of West Seneca","Type":"Adult Home","Street Address":"3030 Clinton Street","City":"West Seneca","County":"Erie","State":"New York","Zip Code":14224,"Facility Phone Number":7168224466,"Facility Location":"(40.739737, -73.848521)"},"geometry":{"type":"Point","coordinates":[-73.848521,40.739737]}},{"type":"Feature","properties":{"Facility ID":534,"Name":"A Holly Patterson Extended Care Facility","Type":"Residential Health Care Facility","Street Address":"875 Jerusalem Avenue","City":"Uniondale","County":"Nassau","State":"New York","Zip Code":11553,"Facility Phone Number":5165721400,"Facility Location":"(40.740219, -73.239174)"},"geometry":{"type":"Point","coordinates":[-73.239174,40.740219]}},{"type":"Feature","properties":{"Facility ID":1784,"Name":"Eddy Visiting Nurse & Rehab Association","Type":"Certified Home Health Agency","Street Address":"433 River Street  Suite 3000","City":"Troy","County":"Rensselaer","State":"New York","Zip Code":12180,"Facility Phone Number":5182746200,"Facility Location":"(40.740398, -73.849472)"},"geometry":{"type":"Point","coordinates":[-73.849472,40.740398]}},{"type":"Feature","properties":{"Facility ID":300,"Name":"Seneca Health Care Center","Type":"Residential Health Care Facility","Street Address":"2987 Seneca Street","City":"West Seneca","County":"Erie","State":"New York","Zip Code":14224,"Facility Phone Number":7168280500,"Facility Location":"(40.740998, -73.884215)"},"geometry":{"type":"Point","coordinates":[-73.884215,40.740998]}},{"type":"Feature","properties":{"Facility ID":15051,"Name":"Braemar Living at Medford","Type":"Adult Home","Street Address":"1529 North Ocean Avenue","City":"Medford","County":"Suffolk","State":"New York","Zip Code":11763,"Facility Phone Number":6312890600,"Facility Location":"(40.741615, -73.903488)"},"geometry":{"type":"Point","coordinates":[-73.903488,40.741615]}},{"type":"Feature","properties":{"Facility ID":448,"Name":"The Pearl Nursing Center of Rochester","Type":"Residential Health Care Facility","Street Address":"1335 Portland Avenue","City":"Rochester","County":"Monroe","State":"New York","Zip Code":14621,"Facility Phone Number":5855444400,"Facility Location":"(40.742969, -73.936483)"},"geometry":{"type":"Point","coordinates":[-73.936483,40.742969]}},{"type":"Feature","properties":{"Facility ID":14964,"Name":"Hawthorne Ridge, Inc.","Type":"Adult Home","Street Address":"30 Community Way","City":"East Greenbush","County":"Rensselaer","State":"New York","Zip Code":12061,"Facility Phone Number":5188331111,"Facility Location":"(40.743107, -73.1119)"},"geometry":{"type":"Point","coordinates":[-73.1119,40.743107]}},{"type":"Feature","properties":{"Facility ID":15379,"Name":"Willow Creek","Type":"Adult Home","Street Address":"4460 Union Hill Rd.","City":"Hinsdale","County":"Cattaraugus","State":"New York","Zip Code":14743,"Facility Phone Number":7165572322,"Facility Location":"(40.744673, -73.087551)"},"geometry":{"type":"Point","coordinates":[-73.087551,40.744673]}},{"type":"Feature","properties":{"Facility ID":14945,"Name":"Wavecrest Home for Adults","Type":"Adult Home","Street Address":"242 Beach 20th Street","City":"Far Rockaway","County":"Queens","State":"New York","Zip Code":11691,"Facility Phone Number":7184715500,"Facility Location":"(40.745575, -73.587082)"},"geometry":{"type":"Point","coordinates":[-73.587082,40.745575]}},{"type":"Feature","properties":{"Facility ID":4815,"Name":"NYS Veterans Home In NYC","Type":"Residential Health Care Facility","Street Address":"178-50 Linden Blvd","City":"Jamaica","County":"Queens","State":"New York","Zip Code":11434,"Facility Phone Number":7189900329,"Facility Location":"(40.746621, -74.003052)"},"geometry":{"type":"Point","coordinates":[-74.003052,40.746621]}},{"type":"Feature","properties":{"Facility ID":99,"Name":"Chautauqua Nursing and Rehabilitation Center","Type":"Residential Health Care Facility","Street Address":"10836 Temple Road","City":"Dunkirk","County":"Chautauqua","State":"New York","Zip Code":14048,"Facility Phone Number":7163666400,"Facility Location":"(40.746712, -73.990334)"},"geometry":{"type":"Point","coordinates":[-73.990334,40.746712]}},{"type":"Feature","properties":{"Facility ID":588,"Name":"Absolut Center for Nursing and Rehabilitation at Gasport, LLC","Type":"Residential Health Care Facility","Street Address":"4540 Lincoln Drive","City":"Gasport","County":"Niagara","State":"New York","Zip Code":14067,"Facility Phone Number":7167722631,"Facility Location":"(40.746719, -73.7117)"},"geometry":{"type":"Point","coordinates":[-73.7117,40.746719]}},{"type":"Feature","properties":{"Facility ID":136,"Name":"Champlain Valley Physicians Hospital Medical Center SNF","Type":"Residential Health Care Facility","Street Address":"75 Beekman Street","City":"Plattsburg","County":"Clinton","State":"New York","Zip Code":12901,"Facility Phone Number":5185612000,"Facility Location":"(40.747776, -73.988197)"},"geometry":{"type":"Point","coordinates":[-73.988197,40.747776]}},{"type":"Feature","properties":{"Facility ID":14701,"Name":"Symphony Manor at Lancaster","Type":"Adult Home","Street Address":"5539 Broadway","City":"Lancaster","County":"Erie","State":"New York","Zip Code":14086,"Facility Phone Number":7166835150,"Facility Location":"(40.749766, -73.973186)"},"geometry":{"type":"Point","coordinates":[-73.973186,40.749766]}},{"type":"Feature","properties":{"Facility ID":14828,"Name":"Amber Court of Westbury","Type":"Adult Home","Street Address":"3400 Brush Hollow Road","City":"Westbury","County":"Nassau","State":"New York","Zip Code":11590,"Facility Phone Number":5163343838,"Facility Location":"(40.749766, -73.973186)"},"geometry":{"type":"Point","coordinates":[-73.973186,40.749766]}},{"type":"Feature","properties":{"Facility ID":496,"Name":"Beach Terrace Care Center","Type":"Residential Health Care Facility","Street Address":"640 West Broadway","City":"Long Beach","County":"Nassau","State":"New York","Zip Code":11561,"Facility Phone Number":5164314400,"Facility Location":"(40.750694, -73.895523)"},"geometry":{"type":"Point","coordinates":[-73.895523,40.750694]}},{"type":"Feature","properties":{"Facility ID":3989,"Name":"Gurwin Jewish Nursing and Rehabilitation Center","Type":"Residential Health Care Facility","Street Address":"68 Hauppauge Road","City":"Commack","County":"Suffolk","State":"New York","Zip Code":11725,"Facility Phone Number":6314996500,"Facility Location":"(40.751484, -73.99781)"},"geometry":{"type":"Point","coordinates":[-73.99781,40.751484]}},{"type":"Feature","properties":{"Facility ID":6248,"Name":"Buena Vida Rehabilitation and Nursing Center","Type":"Residential Health Care Facility","Street Address":"48 Cedar Street","City":"Brooklyn","County":"Kings","State":"New York","Zip Code":11221,"Facility Phone Number":9178810636,"Facility Location":"(40.753513, -73.992432)"},"geometry":{"type":"Point","coordinates":[-73.992432,40.753513]}},{"type":"Feature","properties":{"Facility ID":14897,"Name":"Brookdale East Side","Type":"Adult Home","Street Address":"7164 East Genesee Street","City":"Fayetteville","County":"Onondaga","State":"New York","Zip Code":13066,"Facility Phone Number":3156375127,"Facility Location":"(40.753942, -73.706231)"},"geometry":{"type":"Point","coordinates":[-73.706231,40.753942]}},{"type":"Feature","properties":{"Facility ID":15007,"Name":"Adirondack Manor HFA D.B.A Scotia Mansion","Type":"Adult Home","Street Address":"39 Wallace Street","City":"Scotia","County":"Schenectady","State":"New York","Zip Code":12302,"Facility Phone Number":5183466458,"Facility Location":"(40.753942, -73.706231)"},"geometry":{"type":"Point","coordinates":[-73.706231,40.753942]}},{"type":"Feature","properties":{"Facility ID":15360,"Name":"Albany Center for Independent Living","Type":"Adult Home","Street Address":"141 Rockefeller Road","City":"Delmar","County":"Albany","State":"New York","Zip Code":12054,"Facility Phone Number":5184398899,"Facility Location":"(40.753952, -73.706223)"},"geometry":{"type":"Point","coordinates":[-73.706223,40.753952]}},{"type":"Feature","properties":{"Facility ID":14638,"Name":"Randolph Manor","Type":"Adult Home","Street Address":"40 East Main Street","City":"Randolph","County":"Cattaraugus","State":"New York","Zip Code":14772,"Facility Phone Number":7163584041,"Facility Location":"(40.753952, -73.706223)"},"geometry":{"type":"Point","coordinates":[-73.706223,40.753952]}},{"type":"Feature","properties":{"Facility ID":326,"Name":"Alice Hyde Medical Center","Type":"Residential Health Care Facility","Street Address":"45 Sixth Street","City":"Malone","County":"Franklin","State":"New York","Zip Code":12953,"Facility Phone Number":5184818000,"Facility Location":"(40.756798, -73.822784)"},"geometry":{"type":"Point","coordinates":[-73.822784,40.756798]}},{"type":"Feature","properties":{"Facility ID":4755,"Name":"Our Lady of Mercy Life Center","Type":"Residential Health Care Facility","Street Address":"2 Mercycare Lane","City":"Guilderland","County":"Albany","State":"New York","Zip Code":12084,"Facility Phone Number":5184648100,"Facility Location":"(40.757251, -73.825534)"},"geometry":{"type":"Point","coordinates":[-73.825534,40.757251]}},{"type":"Feature","properties":{"Facility ID":14876,"Name":"Masonic Home","Type":"Adult Home","Street Address":"2150 Bleecker Street","City":"Utica","County":"Oneida","State":"New York","Zip Code":13501,"Facility Phone Number":3157984800,"Facility Location":"(40.758675, -73.782646)"},"geometry":{"type":"Point","coordinates":[-73.782646,40.758675]}},{"type":"Feature","properties":{"Facility ID":15116,"Name":"The Country House in Westchester","Type":"Adult Home","Street Address":"2000 Baldwin Road","City":"Yorktown Heights","County":"Westchester","State":"New York","Zip Code":10598,"Facility Phone Number":9149623625,"Facility Location":"(40.758907, -73.700081)"},"geometry":{"type":"Point","coordinates":[-73.700081,40.758907]}},{"type":"Feature","properties":{"Facility ID":15112,"Name":"White Plains Guest Home for Adults","Type":"Adult Home","Street Address":"32 Ridgeview Avenue","City":"White Plains","County":"Westchester","State":"New York","Zip Code":10606,"Facility Phone Number":9149498984,"Facility Location":"(40.759109, -73.68927)"},"geometry":{"type":"Point","coordinates":[-73.68927,40.759109]}},{"type":"Feature","properties":{"Facility ID":1599,"Name":"VillageCare Rehabilitation and Nursing Center","Type":"Residential Health Care Facility","Street Address":"214 West Houston Street","City":"New York","County":"New York","State":"New York","Zip Code":10014,"Facility Phone Number":2122061493,"Facility Location":"(40.760715, -73.008305)"},"geometry":{"type":"Point","coordinates":[-73.008305,40.760715]}},{"type":"Feature","properties":{"Facility ID":14808,"Name":"Plattduetsche Home Society","Type":"Adult Home","Street Address":"1150 Hempstead Turnpike","City":"Franklin Square","County":"Nassau","State":"New York","Zip Code":11010,"Facility Phone Number":5163524252,"Facility Location":"(40.763371, -73.820488)"},"geometry":{"type":"Point","coordinates":[-73.820488,40.763371]}},{"type":"Feature","properties":{"Facility ID":350,"Name":"Greene Meadows Nursing and Rehabilitation Center","Type":"Residential Health Care Facility","Street Address":"161 Jefferson Heights","City":"Catskill","County":"Greene","State":"New York","Zip Code":12414,"Facility Phone Number":5189439380,"Facility Location":"(40.764141, -73.066551)"},"geometry":{"type":"Point","coordinates":[-73.066551,40.764141]}},{"type":"Feature","properties":{"Facility ID":1115,"Name":"Tarrytown Rehabilitation and Nursing Center","Type":"Residential Health Care Facility","Street Address":"20 Wood Court","City":"Tarrytown","County":"Westchester","State":"New York","Zip Code":10591,"Facility Phone Number":9146312600,"Facility Location":"(40.764179, -73.823189)"},"geometry":{"type":"Point","coordinates":[-73.823189,40.764179]}},{"type":"Feature","properties":{"Facility ID":15083,"Name":"Jeff Senior Living","Type":"Adult Home","Street Address":"4804 Route 52- East Main Street","City":"Jeffersonville","County":"Sullivan","State":"New York","Zip Code":12748,"Facility Phone Number":8454824375,"Facility Location":"(40.765556, -73.825699)"},"geometry":{"type":"Point","coordinates":[-73.825699,40.765556]}},{"type":"Feature","properties":{"Facility ID":9741,"Name":"Gurwin Certified Home Health Agency","Type":"Certified Home Health Agency","Street Address":"330 Conklin Street","City":"Farmingdale","County":"Nassau","State":"New York","Zip Code":11735,"Facility Phone Number":6317158600,"Facility Location":"(40.765556, -73.823601)"},"geometry":{"type":"Point","coordinates":[-73.823601,40.765556]}},{"type":"Feature","properties":{"Facility ID":3164,"Name":"Kirkhaven","Type":"Residential Health Care Facility","Street Address":"254 Alexander Street","City":"Rochester","County":"Monroe","State":"New York","Zip Code":14607,"Facility Phone Number":5854611991,"Facility Location":"(40.765839, -73.012064)"},"geometry":{"type":"Point","coordinates":[-73.012064,40.765839]}},{"type":"Feature","properties":{"Facility ID":594,"Name":"Bethany Gardens Skilled Living Center","Type":"Residential Health Care Facility","Street Address":"800 West Chestnut Street","City":"Rome","County":"Oneida","State":"New York","Zip Code":13440,"Facility Phone Number":3153393210,"Facility Location":"(40.765881, -73.724258)"},"geometry":{"type":"Point","coordinates":[-73.724258,40.765881]}},{"type":"Feature","properties":{"Facility ID":1219,"Name":"Workmen's Circle Multicare Center","Type":"Residential Health Care Facility","Street Address":"3155 Grace Avenue","City":"Bronx","County":"Bronx","State":"New York","Zip Code":10469,"Facility Phone Number":7183798100,"Facility Location":"(40.765911, -73.017731)"},"geometry":{"type":"Point","coordinates":[-73.017731,40.765911]}},{"type":"Feature","properties":{"Facility ID":1690,"Name":"Promenade Rehabilitation and Health Care Center","Type":"Residential Health Care Facility","Street Address":"140 Beach 114th Street","City":"Rockaway Park","County":"Queens","State":"New York","Zip Code":11694,"Facility Phone Number":7189454600,"Facility Location":"(40.765911, -73.017769)"},"geometry":{"type":"Point","coordinates":[-73.017769,40.765911]}},{"type":"Feature","properties":{"Facility ID":14894,"Name":"The Athenaeum of Skaneateles","Type":"Adult Home","Street Address":"150 Genesee Street","City":"Skaneateles","County":"Onondaga","State":"New York","Zip Code":13152,"Facility Phone Number":3156851400,"Facility Location":"(40.766533, -73.954063)"},"geometry":{"type":"Point","coordinates":[-73.954063,40.766533]}},{"type":"Feature","properties":{"Facility ID":14768,"Name":"Fairport Baptist Homes Adult Care Facility","Type":"Adult Home","Street Address":"4646 Nine Mile Point Road","City":"Fairport","County":"Monroe","State":"New York","Zip Code":14450,"Facility Phone Number":5853770350,"Facility Location":"(40.767018, -73.819695)"},"geometry":{"type":"Point","coordinates":[-73.819695,40.767018]}},{"type":"Feature","properties":{"Facility ID":469,"Name":"Elderwood of Lakeside at Brockport","Type":"Residential Health Care Facility","Street Address":"170 West Avenue","City":"Brockport","County":"Monroe","State":"New York","Zip Code":14420,"Facility Phone Number":5853956052,"Facility Location":"(40.767384, -73.827042)"},"geometry":{"type":"Point","coordinates":[-73.827042,40.767384]}},{"type":"Feature","properties":{"Facility ID":15026,"Name":"Brentwood Adult Home","Type":"Adult Home","Street Address":"147 Second Avenue","City":"Brentwood","County":"Suffolk","State":"New York","Zip Code":11717,"Facility Phone Number":6312737204,"Facility Location":"(40.768171, -73.106652)"},"geometry":{"type":"Point","coordinates":[-73.106652,40.768171]}},{"type":"Feature","properties":{"Facility ID":14750,"Name":"The Belvedere","Type":"Adult Home","Street Address":"5110 19th Avenue","City":"Brooklyn","County":"Kings","State":"New York","Zip Code":11204,"Facility Phone Number":7182231800,"Facility Location":"(40.768742, -72.995651)"},"geometry":{"type":"Point","coordinates":[-72.995651,40.768742]}},{"type":"Feature","properties":{"Facility ID":963,"Name":"Sullivan County Adult Care Center","Type":"Residential Health Care Facility","Street Address":"256 Sunset Lake Road, P.O. Box 671","City":"Liberty","County":"Sullivan","State":"New York","Zip Code":12754,"Facility Phone Number":8452928640,"Facility Location":"(40.768784, -73.942253)"},"geometry":{"type":"Point","coordinates":[-73.942253,40.768784]}},{"type":"Feature","properties":{"Facility ID":4549,"Name":"Eddy Heritage House Nursing and Rehabilitation Center","Type":"Residential Health Care Facility","Street Address":"2920 Tibbits Avenue","City":"Troy","County":"Rensselaer","State":"New York","Zip Code":12180,"Facility Phone Number":5182744125,"Facility Location":"(40.76886, -73.870171)"},"geometry":{"type":"Point","coordinates":[-73.870171,40.76886]}},{"type":"Feature","properties":{"Facility ID":3089,"Name":"Terence Cardinal Cooke Health Care Center","Type":"Residential Health Care Facility","Street Address":"1249 Fifth Avenue","City":"New York","County":"New York","State":"New York","Zip Code":10029,"Facility Phone Number":2123603600,"Facility Location":"(40.769424, -73.870087)"},"geometry":{"type":"Point","coordinates":[-73.870087,40.769424]}},{"type":"Feature","properties":{"Facility ID":647,"Name":"Jewish Home of Central New York","Type":"Residential Health Care Facility","Street Address":"4101 E Genesee St","City":"Syracuse","County":"Onondaga","State":"New York","Zip Code":13214,"Facility Phone Number":3154469111,"Facility Location":"(40.770432, -73.705894)"},"geometry":{"type":"Point","coordinates":[-73.705894,40.770432]}},{"type":"Feature","properties":{"Facility ID":1078,"Name":"Glen Island Center for Nursing and Rehabilitation","Type":"Residential Health Care Facility","Street Address":"490 Pelham Road","City":"New Rochelle","County":"Westchester","State":"New York","Zip Code":10805,"Facility Phone Number":9146362800,"Facility Location":"(40.770457, -73.836388)"},"geometry":{"type":"Point","coordinates":[-73.836388,40.770457]}},{"type":"Feature","properties":{"Facility ID":7815,"Name":"Extended Home Care","Type":"Certified Home Health Agency","Street Address":"7 Penn Plaza, Suite 422","City":"New York","County":"New York","State":"New York","Zip Code":"10001-0022","Facility Phone Number":2123564200,"Facility Location":"(40.771042, -73.686638)"},"geometry":{"type":"Point","coordinates":[-73.686638,40.771042]}},{"type":"Feature","properties":{"Facility ID":15027,"Name":"Echo Arms Adult Home","Type":"Adult Home","Street Address":"204 Patchogue Road","City":"Port Jefferson Stat.","County":"Suffolk","State":"New York","Zip Code":11776,"Facility Phone Number":6314730166,"Facility Location":"(40.772161, -73.95069)"},"geometry":{"type":"Point","coordinates":[-73.95069,40.772161]}},{"type":"Feature","properties":{"Facility ID":144,"Name":"Clinton County Nursing Home","Type":"Residential Health Care Facility","Street Address":"16 Flynn Avenue","City":"Plattsburgh","County":"Clinton","State":"New York","Zip Code":12901,"Facility Phone Number":5185630950,"Facility Location":"(40.772404, -72.933739)"},"geometry":{"type":"Point","coordinates":[-72.933739,40.772404]}},{"type":"Feature","properties":{"Facility ID":655,"Name":"St Camillus Residential Health Care Facility","Type":"Residential Health Care Facility","Street Address":"813 Fay Road","City":"Syracuse","County":"Onondaga","State":"New York","Zip Code":13219,"Facility Phone Number":3154882951,"Facility Location":"(40.772499, -73.246109)"},"geometry":{"type":"Point","coordinates":[-73.246109,40.772499]}},{"type":"Feature","properties":{"Facility ID":3861,"Name":"VNSNY Hospice and Palliative Care","Type":"Hospice","Street Address":"220 E 42nd Street, 7th Floor","City":"New York","County":"New York","State":"New York","Zip Code":10017,"Facility Phone Number":2126091920,"Facility Location":"(40.772808, -73.561164)"},"geometry":{"type":"Point","coordinates":[-73.561164,40.772808]}},{"type":"Feature","properties":{"Facility ID":1673,"Name":"Bridge View Nursing Home","Type":"Residential Health Care Facility","Street Address":"143-10 20th Ave","City":"Whitestone","County":"Queens","State":"New York","Zip Code":11357,"Facility Phone Number":7189611212,"Facility Location":"(40.773117, -73.925148)"},"geometry":{"type":"Point","coordinates":[-73.925148,40.773117]}},{"type":"Feature","properties":{"Facility ID":1877,"Name":"HCR / HCR Home Care","Type":"Certified Home Health Agency","Street Address":"290 Elwood Davis Road, Suite 104","City":"Liverpool","County":"Onondaga","State":"New York","Zip Code":13088,"Facility Phone Number":3152800681,"Facility Location":"(40.773228, -73.562088)"},"geometry":{"type":"Point","coordinates":[-73.562088,40.773228]}},{"type":"Feature","properties":{"Facility ID":15056,"Name":"Sunrise of Smithtown","Type":"Adult Home","Street Address":"30 Hauppauge, Route 111","City":"Smithtown","County":"Suffolk","State":"New York","Zip Code":11787,"Facility Phone Number":6317242299,"Facility Location":"(40.773529, -72.934418)"},"geometry":{"type":"Point","coordinates":[-72.934418,40.773529]}},{"type":"Feature","properties":{"Facility ID":14782,"Name":"Elderwood Village at Fairport","Type":"Adult Home","Street Address":"7 Chardonnay Drive","City":"Fairport","County":"Monroe","State":"New York","Zip Code":14450,"Facility Phone Number":5854250210,"Facility Location":"(40.773552, -73.015789)"},"geometry":{"type":"Point","coordinates":[-73.015789,40.773552]}},{"type":"Feature","properties":{"Facility ID":288,"Name":"Beechwood Homes","Type":"Residential Health Care Facility","Street Address":"2235 Millersport Highway","City":"Getzville","County":"Erie","State":"New York","Zip Code":14068,"Facility Phone Number":7166888822,"Facility Location":"(40.773783, -73.699986)"},"geometry":{"type":"Point","coordinates":[-73.699986,40.773783]}},{"type":"Feature","properties":{"Facility ID":14956,"Name":"Sutton Gardens, LLC","Type":"Adult Home","Street Address":"147-02 34th Avenue","City":"Flushing","County":"Queens","State":"New York","Zip Code":11354,"Facility Phone Number":7184611923,"Facility Location":"(40.773888, -73.847313)"},"geometry":{"type":"Point","coordinates":[-73.847313,40.773888]}},{"type":"Feature","properties":{"Facility ID":14992,"Name":"Brightview Lake Tappan","Type":"Adult Home","Street Address":"31 Hunt Road","City":"Orangeburg","County":"Rockland","State":"New York","Zip Code":10962,"Facility Phone Number":8458672333,"Facility Location":"(40.773899, -73.480408)"},"geometry":{"type":"Point","coordinates":[-73.480408,40.773899]}},{"type":"Feature","properties":{"Facility ID":14605,"Name":"Promenade at University Place","Type":"Adult Home","Street Address":"1228 Western Avenue","City":"Albany","County":"Albany","State":"New York","Zip Code":12203,"Facility Phone Number":5185149500,"Facility Location":"(40.774136, -73.956795)"},"geometry":{"type":"Point","coordinates":[-73.956795,40.774136]}},{"type":"Feature","properties":{"Facility ID":107,"Name":"Lutheran Retirement Home","Type":"Residential Health Care Facility","Street Address":"715 Falconer Street","City":"Jamestown","County":"Chautauqua","State":"New York","Zip Code":14701,"Facility Phone Number":7166654905,"Facility Location":"(40.77457, -73.848305)"},"geometry":{"type":"Point","coordinates":[-73.848305,40.77457]}},{"type":"Feature","properties":{"Facility ID":1772,"Name":"HCR / HCR Home Care","Type":"Certified Home Health Agency","Street Address":"176 U.S. Oval, Suite 3","City":"Plattsburgh","County":"Clinton","State":"New York","Zip Code":12903,"Facility Phone Number":5183100900,"Facility Location":"(40.775152, -73.559516)"},"geometry":{"type":"Point","coordinates":[-73.559516,40.775152]}},{"type":"Feature","properties":{"Facility ID":1316,"Name":"Rutland Nursing Home, Inc.","Type":"Residential Health Care Facility","Street Address":"585 Schenectady Avenue","City":"Brooklyn","County":"Kings","State":"New York","Zip Code":11203,"Facility Phone Number":7186045221,"Facility Location":"(40.775152, -73.559516)"},"geometry":{"type":"Point","coordinates":[-73.559516,40.775152]}},{"type":"Feature","properties":{"Facility ID":1408,"Name":"Downtown Brooklyn Nursing & Rehabilitation Center","Type":"Residential Health Care Facility","Street Address":"520 Prospect Place","City":"Brooklyn","County":"Kings","State":"New York","Zip Code":11238,"Facility Phone Number":7186361000,"Facility Location":"(40.775177, -73.847572)"},"geometry":{"type":"Point","coordinates":[-73.847572,40.775177]}},{"type":"Feature","properties":{"Facility ID":437,"Name":"Waterview Heights Rehabilitation and Nursing Center","Type":"Residential Health Care Facility","Street Address":"425 Beach Avenue","City":"Rochester","County":"Monroe","State":"New York","Zip Code":14612,"Facility Phone Number":5856630930,"Facility Location":"(40.77607, -73.460162)"},"geometry":{"type":"Point","coordinates":[-73.460162,40.77607]}},{"type":"Feature","properties":{"Facility ID":14991,"Name":"The Pavilion at Pine Valley","Type":"Adult Home","Street Address":"661 North Main Street","City":"Spring Valley","County":"Rockland","State":"New York","Zip Code":10977,"Facility Phone Number":8454265600,"Facility Location":"(40.77618, -73.769989)"},"geometry":{"type":"Point","coordinates":[-73.769989,40.77618]}},{"type":"Feature","properties":{"Facility ID":3339,"Name":"Schofield Residence","Type":"Long Term Home Health Care Program","Street Address":"2757 Elmwood Avenue","City":"Kenmore","County":"Erie","State":"New York","Zip Code":14217,"Facility Phone Number":7168742600,"Facility Location":"(40.776691, -73.525688)"},"geometry":{"type":"Point","coordinates":[-73.525688,40.776691]}},{"type":"Feature","properties":{"Facility ID":3506,"Name":"Staten Island University Hospital University Hospice","Type":"Hospice","Street Address":"78 Meisner Avenue","City":"Staten Island","County":"Richmond","State":"New York","Zip Code":10306,"Facility Phone Number":7182266450,"Facility Location":"(40.776691, -73.525688)"},"geometry":{"type":"Point","coordinates":[-73.525688,40.776691]}},{"type":"Feature","properties":{"Facility ID":244,"Name":"Humboldt House Rehabilitation and Nursing Center","Type":"Residential Health Care Facility","Street Address":"64 Hager Street","City":"Buffalo","County":"Erie","State":"New York","Zip Code":14208,"Facility Phone Number":7168864377,"Facility Location":"(40.777584, -73.563997)"},"geometry":{"type":"Point","coordinates":[-73.563997,40.777584]}},{"type":"Feature","properties":{"Facility ID":15068,"Name":"Sunrise of Huntington","Type":"Adult Home","Street Address":"300 West Hills Road","City":"Huntington Station","County":"Suffolk","State":"New York","Zip Code":11746,"Facility Phone Number":6317602044,"Facility Location":"(40.778863, -73.232392)"},"geometry":{"type":"Point","coordinates":[-73.232392,40.778863]}},